id,name,postcode,address,rating,reviewCount,category,lat,lng,bezirkId,bezirkName,hasDefamationNotice,removedMin,removedMax,removedEstimate,deletionRatioPct,realRatingAdjusted,removedText,url,readAt,placeState,status,error
0x479e27deefc81dad:0xf6b8faaffba5285d,"""Karls Leberkas""",84028,"Ländgasse 135a, 84028 Landshut",4.7,155,Imbiss,48.5354694,12.1500475,,,false,,,,,,,https://www.google.com/maps/place/%22Karls+Leberkas%22/data=!4m7!3m6!1s0x479e27deefc81dad:0xf6b8faaffba5285d!8m2!3d48.5354694!4d12.1500475!16s%2Fg%2F11fk46fjv5!19sChIJrR3I794nnkcRXSil-6_6uPY?authuser=0&hl=de&rclk=1,2026-05-15T18:47:58Z,active,success,
0x479e26713006b4e1:0xadd4d2bf54cfe82a,.,84028,"Altstadt 1, 84028 Landshut",3.8,11,,48.5327764,12.1495331,,,false,,,,,,,https://www.google.com/maps/place/data=!4m7!3m6!1s0x479e26713006b4e1:0xadd4d2bf54cfe82a!8m2!3d48.5327764!4d12.1495331!16s%2Fg%2F1thz0nm8!19sChIJ4bQGMHEmnkcRKujPVL_S1K0?authuser=0&hl=de&rclk=1,2026-05-15T19:07:54Z,permanently_closed,success,
0x479e27ee8d98c4d7:0x4887ba8abcf3c9a1,01 Adana Kebap,84028,"Stethaimerstraße 31, 84034 Landshut",4,65,Döner / Kebab,48.5462733,12.1530032,,,false,,,,,,,https://www.google.com/maps/place/01+Adana+Kebap/data=!4m7!3m6!1s0x479e27ee8d98c4d7:0x4887ba8abcf3c9a1!8m2!3d48.5462733!4d12.1530032!16s%2Fg%2F11rrh9_9cx!19sChIJ18SYje4nnkcRocnzvIq6h0g?authuser=0&hl=de&rclk=1,2026-05-15T18:48:51Z,active,success,
0x479e2626ae99ac97:0x9b22d0aeb9efeeaa,1. Bahnengolf-Club Landshut e.V.,84028,"Breslauer Str. 121, 84028 Landshut",4.3,239,Sonstiges,48.555117,12.178565,,,false,,,,,,,https://www.google.com/maps/place/1.+Bahnengolf-Club+Landshut+e.V./data=!4m7!3m6!1s0x479e2626ae99ac97:0x9b22d0aeb9efeeaa!8m2!3d48.555117!4d12.178565!16s%2Fg%2F1tfpt7pn!19sChIJl6yZriYmnkcRqu7vua7QIps?authuser=0&hl=de&rclk=1,2026-05-15T19:09:35Z,active,success,
0x479e27c658ae884f:0xf790d4ea916d1b10,1855 Retro,84028,"Am Alten Viehmarkt 5, 84028 Landshut",4.9,147,Restaurant,48.5393435,12.1559225,,,false,,,,,,,https://www.google.com/maps/place/1855+Retro/data=!4m7!3m6!1s0x479e27c658ae884f:0xf790d4ea916d1b10!8m2!3d48.5393435!4d12.1559225!16s%2Fg%2F11ghn7327p!19sChIJT4iuWMYnnkcREBttkerUkPc?authuser=0&hl=de&rclk=1,2026-05-15T18:41:42Z,active,success,
0x479e2672caf940d1:0x88278ebcc3444a79,35 milli(m)eter Landshut,84028,"Am Alten Viehmarkt 5, 84028 Landshut",3.6,1373,Restaurant,48.5394067,12.1565314,,,false,,,,,,,https://www.google.com/maps/place/35+milli%28m%29eter+Landshut/data=!4m7!3m6!1s0x479e2672caf940d1:0x88278ebcc3444a79!8m2!3d48.5394067!4d12.1565314!16s%2Fg%2F1tlkbc8r!19sChIJ0UD5ynImnkcReUpEw7yOJ4g?authuser=0&hl=de&rclk=1,2026-05-15T18:42:15Z,active,success,
0x479e2673d82e862d:0xefd8dbcf5d447358,ADAC Geschäftsstelle Landshut,84028,"Altstadt 100, 84028 Landshut",4.6,227,Club / Diskothek,48.5382473,12.152156,,,false,,,,,,,https://www.google.com/maps/place/ADAC+Gesch%C3%A4ftsstelle+Landshut/data=!4m7!3m6!1s0x479e2673d82e862d:0xefd8dbcf5d447358!8m2!3d48.5382473!4d12.152156!16s%2Fg%2F1trqg5zh!19sChIJLYYu2HMmnkcRWHNEXc_b2O8?authuser=0&hl=de&rclk=1,2026-05-15T19:13:02Z,active,success,
0x479e2672ca5b8811:0x9bd7565d6a34c51c,ALDI SÜD,84028,"Am Alten Viehmarkt 5, 84028 Landshut",4.3,377,Lebensmittel,48.53943,12.15671,,,false,,,,,,,https://www.google.com/maps/place/ALDI+S%C3%9CD/data=!4m7!3m6!1s0x479e2672ca5b8811:0x9bd7565d6a34c51c!8m2!3d48.53943!4d12.15671!16s%2Fg%2F12lk63dc_!19sChIJEYhbynImnkcRHMU0al1W15s?authuser=0&hl=de&rclk=1,2026-05-15T19:03:31Z,active,success,
0x668f21d7a3fb26c3:0x9cd0198757f33c8a,Aesthetic Room Ola Elsässer,84028,"Spiegelgasse 203, 84028 Landshut",4.9,36,Friseur / Kosmetik,48.5335412,12.1521102,,,false,,,,,,,https://www.google.com/maps/place/Aesthetic+Room+Ola+Els%C3%A4sser/data=!4m7!3m6!1s0x668f21d7a3fb26c3:0x9cd0198757f33c8a!8m2!3d48.5335412!4d12.1521102!16s%2Fg%2F11s9dpk2_d!19sChIJwyb7o9chj2YRijzzV4cZ0Jw?authuser=0&hl=de&rclk=1,2026-05-15T19:23:20Z,active,success,
0x479e25e0b5af6b03:0x69806a7782aa0a0a,Agip Service-Station,84028,"Luitpoldstraße 55, 84034 Landshut",4,82,Sonstiges,48.5419724,12.1395534,,,false,,,,,,,https://www.google.com/maps/place/Agip+Service-Station/data=!4m7!3m6!1s0x479e25e0b5af6b03:0x69806a7782aa0a0a!8m2!3d48.5419724!4d12.1395534!16s%2Fg%2F11cjxq_ghd!19sChIJA2uvteAlnkcRCgqqgndqgGk?authuser=0&hl=de&rclk=1,2026-05-15T19:55:12Z,active,success,
0x479e26735a1546bf:0x75b3e67d0e1ec6ed,Aladin's Kebap,84028,"Ritter-von-Schoch-Straße 19, 84036 Landshut",4.7,424,Döner / Kebab,48.5459991,12.1799181,,,true,11,20,15.5,3.53,4.57,11 bis 20 Bewertungen aufgrund von Beschwerden wegen Diffamierung entfernt.,https://www.google.com/maps/place/Aladin%27s+Kebap/data=!4m7!3m6!1s0x479e26735a1546bf:0x75b3e67d0e1ec6ed!8m2!3d48.5459991!4d12.1799181!16s%2Fg%2F1v5k1_cq!19sChIJv0YVWnMmnkcR7cYeDn3ms3U?authuser=0&hl=de&rclk=1,2026-05-15T18:50:30Z,active,success,
0x479e25f08f7a38ef:0x121d635730bfcd03,Ali Baba - Döner Imbiss,84028,"Flurstraße 2D, 84032 Landshut",4.8,609,Döner / Kebab,48.5543199,12.1368472,,,false,,,,,,,https://www.google.com/maps/place/Ali+Baba+-+D%C3%B6ner+Imbiss/data=!4m7!3m6!1s0x479e25f08f7a38ef:0x121d635730bfcd03!8m2!3d48.5543199!4d12.1368472!16s%2Fg%2F11bzzw01bt!19sChIJ7zh6j_AlnkcRA82_MFdjHRI?authuser=0&hl=de&rclk=1,2026-05-15T18:47:54Z,active,success,
0x479e28af209bd5e5:0xc44e0ef27515d505,Alpha Power Landshut GmbH,84028,"Industriestraße 9, 84030 Landshut",,0,Fitness / Sport,48.5642683,12.1654244,,,false,,,,,,,https://www.google.com/maps/place/Alpha+Power+Landshut+GmbH/data=!4m7!3m6!1s0x479e28af209bd5e5:0xc44e0ef27515d505!8m2!3d48.5642683!4d12.1654244!16s%2Fg%2F1tcw74vq!19sChIJ5dWbIK8onkcRBdUVdfIOTsQ?authuser=0&hl=de&rclk=1,2026-05-15T19:38:26Z,no_public_reviews,success,
0x479e27006736ef35:0x3929f0619af46378,Alsalh Market,84028,"Fischergasse 672, 84028 Landshut",4.2,5,Lebensmittel,48.5395895,12.1506889,,,false,,,,,,,https://www.google.com/maps/place/Alsalh+Market/data=!4m7!3m6!1s0x479e27006736ef35:0x3929f0619af46378!8m2!3d48.5395895!4d12.1506889!16s%2Fg%2F11lmnhkdhh!19sChIJNe82ZwAnnkcReGP0mmHwKTk?authuser=0&hl=de&rclk=1,2026-05-15T19:45:11Z,active,success,
0x479e262360cde13f:0x8b93646ed1b8ca5c,Alte Kaserne,84028,"Liesl-Karlstadt-Weg 4, 84036 Landshut",4.4,457,Sonstiges,48.5484937,12.1811601,,,false,,,,,,,https://www.google.com/maps/place/Alte+Kaserne/data=!4m7!3m6!1s0x479e262360cde13f:0x8b93646ed1b8ca5c!8m2!3d48.5484937!4d12.1811601!16s%2Fg%2F1tdzvp_q!19sChIJP-HNYCMmnkcRXMq40W5kk4s?authuser=0&hl=de&rclk=1,2026-05-15T19:48:14Z,active,success,
0x479e25e875fa121f:0x7f8e070ee3b1af94,Alter Rocket Club Rocket Club,84028,"Siemensstraße 15B, 84030 Landshut",,0,Club / Diskothek,48.55593,12.151468,,,false,,,,,,,https://www.google.com/maps/place/Alter+Rocket+Club+Rocket+Club/data=!4m7!3m6!1s0x479e25e875fa121f:0x7f8e070ee3b1af94!8m2!3d48.55593!4d12.151468!16s%2Fg%2F11mnn9jqsg!19sChIJHxL6deglnkcRlK-x4w4Hjn8?authuser=0&hl=de&rclk=1,2026-05-15T19:09:48Z,no_public_reviews,success,
0x479e270068b422b7:0xe2630e96801ac663,Altstadt 216 84028 Landshut,84028,"Wittstraße 9, 84036 Landshut",,0,Lebensmittel,48.5299471,12.1455502,,,false,,,,,,,https://www.google.com/maps/place/Altstadt+216+84028+Landshut/data=!4m7!3m6!1s0x479e270068b422b7:0xe2630e96801ac663!8m2!3d48.5299471!4d12.1455502!16s%2Fg%2F11mrqbxbfq!19sChIJtyK0aAAnnkcRY8YagJYOY-I?authuser=0&hl=de&rclk=1,2026-05-15T19:44:51Z,no_public_reviews,success,
0x479e2670d67d7dcb:0x4f912060e53355c6,Altstadt Sushi,84028,"Dreifaltigkeitspl. 5, 84028 Landshut",3.9,120,Sushi,48.5321091,12.148853,,,false,,,,,,,https://www.google.com/maps/place/Altstadt+Sushi/data=!4m7!3m6!1s0x479e2670d67d7dcb:0x4f912060e53355c6!8m2!3d48.5321091!4d12.148853!16s%2Fg%2F1tdz8dph!19sChIJy3191nAmnkcRxlUz5WAgkU8?authuser=0&hl=de&rclk=1,2026-05-15T18:55:30Z,active,success,
0x479e267144447e03:0x531d3567b3fc4733,Altstadt-Apotheke,84028,"Altstadt 27, 84028 Landshut",4.6,48,Apotheke,48.53377,12.15011,,,true,6,10,8,14.29,4.086,Sechs bis zehn Bewertungen aufgrund von Beschwerden wegen Diffamierung entfernt.,https://www.google.com/maps/place/Altstadt-Apotheke/data=!4m7!3m6!1s0x479e267144447e03:0x531d3567b3fc4733!8m2!3d48.53377!4d12.15011!16s%2Fg%2F1txy19nb!19sChIJA35ERHEmnkcRM0f8s2c1HVM?authuser=0&hl=de&rclk=1,2026-05-15T19:51:48Z,active,success,
0x479e279959809e91:0x5314526b9420925b,Amiri Restaurant,84028,"Eingang, Neustadt, Bischof-Sailer-Platz 436, 84028 Landshut",4.8,197,Restaurant,48.5383173,12.1543931,,,true,2,5,3.5,1.75,4.734,Zwei bis fünf Bewertungen aufgrund von Beschwerden wegen Diffamierung entfernt.,https://www.google.com/maps/place/Amiri+Restaurant/data=!4m7!3m6!1s0x479e279959809e91:0x5314526b9420925b!8m2!3d48.5383173!4d12.1543931!16s%2Fg%2F11x5sfmrwy!19sChIJkZ6AWZknnkcRW5IglGtSFFM?authuser=0&hl=de&rclk=1,2026-05-15T16:35:36Z,active,success,
0x479e27df4d367433:0x74d3bdfadec065ca,An Lac Chay,84028,"Ländgasse 141, 84028 Landshut",4.5,145,Restaurant,48.5354183,12.1498785,,,false,,,,,,,https://www.google.com/maps/place/An+Lac+Chay/data=!4m7!3m6!1s0x479e27df4d367433:0x74d3bdfadec065ca!8m2!3d48.5354183!4d12.1498785!16s%2Fg%2F11l61x9902!19sChIJM3Q2Td8nnkcRymXA3vq903Q?authuser=0&hl=de&rclk=1,2026-05-15T18:49:39Z,active,success,
0x479e260dda2a1393:0x890ed8015e478df,Angelsportverein Landshut/Bay. e.V.,84028,"Loderstraße 4, 84028 Landshut",4.5,35,Verein,48.5436501,12.1578002,,,false,,,,,,,https://www.google.com/maps/place/Angelsportverein+Landshut%2FBay.+e.V./data=!4m7!3m6!1s0x479e260dda2a1393:0x890ed8015e478df!8m2!3d48.5436501!4d12.1578002!16s%2Fg%2F1tdr28yj!19sChIJkxMq2g0mnkcR33jkFYDtkAg?authuser=0&hl=de&rclk=1,2026-05-15T19:13:44Z,active,success,
0x479e25e14c755af9:0xbc7e11a3a53e5959,Annabell Kröll Friseursalon,84028,"Nikolastraße 54, 84034 Landshut",4.9,19,Friseur / Kosmetik,48.5448356,12.1407547,,,false,,,,,,,https://www.google.com/maps/place/Annabell+Kr%C3%B6ll+Friseursalon/data=!4m7!3m6!1s0x479e25e14c755af9:0xbc7e11a3a53e5959!8m2!3d48.5448356!4d12.1407547!16s%2Fg%2F11g9dnl587!19sChIJ-Vp1TOElnkcRWVk-paMRfrw?authuser=0&hl=de&rclk=1,2026-05-15T19:26:59Z,active,success,
0x479e25ba97792ac9:0x9c6921926cc91f0f,Antonius Apotheke,84028,"Sankt-Wolfgang-Platz 15, 84032 Landshut",4.5,23,Apotheke,48.5493314,12.1348726,,,false,,,,,,,https://www.google.com/maps/place/Antonius+Apotheke/data=!4m7!3m6!1s0x479e25ba97792ac9:0x9c6921926cc91f0f!8m2!3d48.5493314!4d12.1348726!16s%2Fg%2F11h002ws5g!19sChIJySp5l7olnkcRDx_JbJIhaZw?authuser=0&hl=de&rclk=1,2026-05-15T19:53:56Z,active,success,
0x479e2596e22b50e5:0xecf81acf9913bdc,Apartimo Altdorf,84028,"Äußere Parkstraße 7, 84032 Altdorf",4.8,13,Hotel,48.547316,12.111403,,,false,,,,,,,https://www.google.com/maps/place/Apartimo+Altdorf/data=!4m10!3m9!1s0x479e2596e22b50e5:0xecf81acf9913bdc!5m2!4m1!1i2!8m2!3d48.547316!4d12.111403!16s%2Fg%2F11rhr7rnyj!19sChIJ5VAr4pYlnkcR3DuR-ayBzw4?authuser=0&hl=de&rclk=1,2026-05-15T19:15:54Z,active,success,
0x479e25e6e1c6f743:0xecf81acf9913bdc,Apartimo Altdorf,84028,"Äußere Parkstraße 7, 84032 Altdorf",4.8,13,Hotel,48.5473163,12.1114032,,,false,,,,,,,https://www.google.com/maps/place/Apartimo+Altdorf/data=!4m10!3m9!1s0x479e25e6e1c6f743:0xecf81acf9913bdc!5m2!4m1!1i2!8m2!3d48.5473163!4d12.1114032!16s%2Fg%2F11rhr7rnyj!19sChIJQ_fG4eYlnkcR3DuR-ayBzw4?authuser=0&hl=de&rclk=1,2026-05-15T19:17:39Z,active,success,
0x479e25e189d448a9:0x92fa96bd24294c8d,Apartimo Landshut,84028,"Seligenthaler Str. 40, 84034 Landshut",4.7,99,Hotel,48.545317,12.145084,,,true,2,5,3.5,3.41,4.574,Zwei bis fünf Bewertungen aufgrund von Beschwerden wegen Diffamierung entfernt.,https://www.google.com/maps/place/Apartimo+Landshut/data=!4m10!3m9!1s0x479e25e189d448a9:0x92fa96bd24294c8d!5m2!4m1!1i2!8m2!3d48.545317!4d12.145084!16s%2Fg%2F11h110j0dr!19sChIJqUjUieElnkcRjUwpJL2W-pI?authuser=0&hl=de&rclk=1,2026-05-15T19:15:49Z,active,success,
0x479e2503641fbf45:0x92fa96bd24294c8d,Apartimo Landshut,84028,"Seligenthaler Str. 40, 84034 Landshut",4.7,99,Hotel,48.5453169,12.145084,,,true,2,5,3.5,3.41,4.574,Zwei bis fünf Bewertungen aufgrund von Beschwerden wegen Diffamierung entfernt.,https://www.google.com/maps/place/Apartimo+Landshut/data=!4m10!3m9!1s0x479e2503641fbf45:0x92fa96bd24294c8d!5m2!4m1!1i2!8m2!3d48.5453169!4d12.145084!16s%2Fg%2F11h110j0dr!19sChIJRb8fZAMlnkcRjUwpJL2W-pI?authuser=0&hl=de&rclk=1,2026-05-15T19:17:06Z,active,success,
0x479e267250688f4d:0x4a681a063998582c,Aperitivo,84028,"Neustadt 519, 84028 Landshut",4.8,75,Café / Konditorei,48.5362301,12.1544664,,,false,,,,,,,https://www.google.com/maps/place/Aperitivo/data=!4m7!3m6!1s0x479e267250688f4d:0x4a681a063998582c!8m2!3d48.5362301!4d12.1544664!16s%2Fg%2F11bv6pw94f!19sChIJTY9oUHImnkcRLFiYOQYaaEo?authuser=0&hl=de&rclk=1,2026-05-15T18:39:08Z,active,success,
0x479e2670d77d77bf:0xf83266468032246a,Apotheke am Dreifaltigkeitsplatz,84028,"Dreifaltigkeitspl. 175B, 84028 Landshut",4.7,19,Apotheke,48.5321221,12.1496617,,,false,,,,,,,https://www.google.com/maps/place/Apotheke+am+Dreifaltigkeitsplatz/data=!4m7!3m6!1s0x479e2670d77d77bf:0xf83266468032246a!8m2!3d48.5321221!4d12.1496617!16s%2Fg%2F1tj90jg1!19sChIJv3d913AmnkcRaiQygEZmMvg?authuser=0&hl=de&rclk=1,2026-05-15T19:52:03Z,active,success,
0x479e263cc91bcbc9:0x346834f5bd263490,Apotheke am Kaserneneck,84028,"Ritter-von-Schoch-Straße 21A, 84036 Landshut",4.8,46,Apotheke,48.5459857,12.1780401,,,false,,,,,,,https://www.google.com/maps/place/Apotheke+am+Kaserneneck/data=!4m7!3m6!1s0x479e263cc91bcbc9:0x346834f5bd263490!8m2!3d48.5459857!4d12.1780401!16s%2Fg%2F1hc47jwhn!19sChIJycsbyTwmnkcRkDQmvfU0aDQ?authuser=0&hl=de&rclk=1,2026-05-15T19:51:55Z,active,success,
0x479e2672caf940d1:0x686f22dde353a93c,Apotheke im CityCenter,84028,"Am Alten Viehmarkt 5, 84028 Landshut",4.5,48,Apotheke,48.5392747,12.157126,,,false,,,,,,,https://www.google.com/maps/place/Apotheke+im+CityCenter/data=!4m7!3m6!1s0x479e2672caf940d1:0x686f22dde353a93c!8m2!3d48.5392747!4d12.157126!16s%2Fg%2F1tgtdgwd!19sChIJ0UD5ynImnkcRPKlT490ib2g?authuser=0&hl=de&rclk=1,2026-05-15T19:51:33Z,active,success,
0x479e3ad66f5b2871:0x9c6c2821bcc3a69d,Appartementhaus Bruckberg - Gündlkofen,84028,"Hauptstraße 4/4a, 84079 Bruckberg",4.8,4,Hotel,48.53436,12.02704,,,false,,,,,,,https://www.google.com/maps/place/Appartementhaus+Bruckberg+-+G%C3%BCndlkofen/data=!4m10!3m9!1s0x479e3ad66f5b2871:0x9c6c2821bcc3a69d!5m2!4m1!1i2!8m2!3d48.53436!4d12.02704!16s%2Fg%2F11k61dtwhk!19sChIJcShbb9Y6nkcRnabDvCEobJw?authuser=0&hl=de&rclk=1,2026-05-15T19:19:22Z,active,success,
0x479e263ce3e98baf:0x4b7e1f99a3b8ee11,Aral Tankstelle Jasmin Fischer,84028,"Niedermayerstraße 54, 84036 Landshut",3.8,132,Sonstiges,48.5461746,12.1812985,,,false,,,,,,,https://www.google.com/maps/place/Aral+Tankstelle+Jasmin+Fischer/data=!4m7!3m6!1s0x479e263ce3e98baf:0x4b7e1f99a3b8ee11!8m2!3d48.5461746!4d12.1812985!16s%2Fg%2F1tyyw2x7!19sChIJr4vp4zwmnkcREe64o5kffks?authuser=0&hl=de&rclk=1,2026-05-15T19:54:29Z,active,success,
0x479e25e0bc8a98eb:0xf3c78c977edd7394,Arena Bistro,84028,"Luitpoldstraße 48, 84034 Landshut",4.1,89,Restaurant,48.541557,12.1406296,,,false,,,,,,,https://www.google.com/maps/place/Arena+Bistro/data=!4m7!3m6!1s0x479e25e0bc8a98eb:0xf3c78c977edd7394!8m2!3d48.541557!4d12.1406296!16s%2Fg%2F11cs1dwd30!19sChIJ65iKvOAlnkcRlHPdfpeMx_M?authuser=0&hl=de&rclk=1,2026-05-15T18:49:25Z,active,success,
0x479e260041fe2951:0x3bb24003a80ff6c4,Arena Döner,84028,,4.7,618,Döner / Kebab,48.5577188,12.1548486,,,true,6,10,8,1.28,4.653,Sechs bis zehn Bewertungen aufgrund von Beschwerden wegen Diffamierung entfernt.,https://www.google.com/maps/place/Arena+D%C3%B6ner/data=!4m7!3m6!1s0x479e260041fe2951:0x3bb24003a80ff6c4!8m2!3d48.5577188!4d12.1548486!16s%2Fg%2F11c6pldfkk!19sChIJUSn-QQAmnkcRxPYPqANAsjs?authuser=0&hl=de&rclk=1,2026-05-15T18:49:18Z,active,success,
0x479e2733b58a26b9:0x1efa602686644fb7,Arena Döner 2,84028,,4.7,56,Döner / Kebab,48.5522169,12.161414,,,false,,,,,,,https://www.google.com/maps/place/Arena+D%C3%B6ner+2/data=!4m7!3m6!1s0x479e2733b58a26b9:0x1efa602686644fb7!8m2!3d48.5522169!4d12.161414!16s%2Fg%2F11r7642jk7!19sChIJuSaKtTMnnkcRt09khiZg-h4?authuser=0&hl=de&rclk=1,2026-05-15T18:52:10Z,active,success,
0x479e25e5e9e12359:0x3b6119655b3b605f,Asia Hung Landshut,84028,"Bahnhofstraße 1, 84032 Landshut",3.6,309,Asiatisch,48.547142,12.1362555,,,false,,,,,,,https://www.google.com/maps/place/Asia+Hung+Landshut/data=!4m7!3m6!1s0x479e25e5e9e12359:0x3b6119655b3b605f!8m2!3d48.547142!4d12.1362555!16s%2Fg%2F11g98m20cl!19sChIJWSPh6eUlnkcRX2A7W2UZYTs?authuser=0&hl=de&rclk=1,2026-05-15T18:49:49Z,active,success,
0x479e260ceaee2cb7:0xfe3803c51a21be59,Asia Wok Express - Heimservice,84028,"Johann-Weiß-Weg 1, 84028 Landshut",4,127,Asiatisch,48.5406973,12.1538413,,,false,,,,,,,https://www.google.com/maps/place/Asia+Wok+Express+-+Heimservice/data=!4m7!3m6!1s0x479e260ceaee2cb7:0xfe3803c51a21be59!8m2!3d48.5406973!4d12.1538413!16s%2Fg%2F11cl_k2d2k!19sChIJtyzu6gwmnkcRWb4hGsUDOP4?authuser=0&hl=de&rclk=1,2026-05-15T18:52:55Z,temporarily_closed,success,
0x653fe7ee704df345:0x929d936b457bbf6a,Asiacool,84028,,,,Lebensmittel,51.175807,10.4541194,,,false,,,,,,,https://www.google.com/maps/place/Asiacool/data=!4m7!3m6!1s0x653fe7ee704df345:0x929d936b457bbf6a!8m2!3d51.175807!4d10.4541194!16s%2Fg%2F11qh3lz236!19sChIJRfNNcO7nP2URar97RWuTnZI?authuser=0&hl=de&rclk=1,2026-05-15T19:48:33Z,active,success,
0x479e2700694d2e5f:0x9985ad36dffc9aa2,Asian Foodhall,84028,"Altstadt 337, 84028 Landshut",4.6,140,Asiatisch,48.5367142,12.1522669,,,true,2,5,3.5,2.44,4.512,Zwei bis fünf Bewertungen aufgrund von Beschwerden wegen Diffamierung entfernt.,https://www.google.com/maps/place/Asian+Foodhall/data=!4m7!3m6!1s0x479e2700694d2e5f:0x9985ad36dffc9aa2!8m2!3d48.5367142!4d12.1522669!16s%2Fg%2F11y78t4n5w!19sChIJXy5NaQAnnkcRopr83zathZk?authuser=0&hl=de&rclk=1,2026-05-15T19:02:38Z,active,success,
0x479e2700288bc54d:0x1905fd268b4e891a,Asiatische & Afrikanische Lebensmittel,84028,"Ländgasse 110, 84028 Landshut",5,1,Sonstiges,48.5375088,12.1516541,,,false,,,,,,,https://www.google.com/maps/place/Asiatische+%26+Afrikanische+Lebensmittel/data=!4m7!3m6!1s0x479e2700288bc54d:0x1905fd268b4e891a!8m2!3d48.5375088!4d12.1516541!16s%2Fg%2F11w7k30ddh!19sChIJTcWLKAAnnkcRGolOiyb9BRk?authuser=0&hl=de&rclk=1,2026-05-15T19:45:06Z,active,success,
0x2a341e1d05eae853:0x79b28b944423c54a,AtelHAIR Landshut GmbH,84028,"Grasgasse 321, 84028 Landshut",5,144,Friseur / Kosmetik,48.5359542,12.15329,,,false,,,,,,,https://www.google.com/maps/place/AtelHAIR+Landshut+GmbH/data=!4m7!3m6!1s0x2a341e1d05eae853:0x79b28b944423c54a!8m2!3d48.5359542!4d12.15329!16s%2Fg%2F11mzx4yqx3!19sChIJU-jqBR0eNCoRSsUjRJSLsnk?authuser=0&hl=de&rclk=1,2026-05-15T19:14:26Z,active,success,
0x479e260cbbe610b7:0x6ac2240483bfe2af,Augustiner Zur Schleuse,84028,"Isargestade 739, 84028 Landshut",4.5,1160,Restaurant,48.5402978,12.1533168,,,false,,,,,,,https://www.google.com/maps/place/Augustiner+Zur+Schleuse/data=!4m7!3m6!1s0x479e260cbbe610b7:0x6ac2240483bfe2af!8m2!3d48.5402978!4d12.1533168!16s%2Fg%2F1tph0qsx!19sChIJtxDmuwwmnkcRr-K_gwQkwmo?authuser=0&hl=de&rclk=1,2026-05-15T18:45:01Z,active,success,
0x479e2673d92b06e9:0xac0e6adb4973be2a,Augustiner an der Sankt Martinskirche,84028,"Kirchgasse 251, 84028 Landshut",4.6,3168,Restaurant,48.534704,12.1516433,,,false,,,,,,,https://www.google.com/maps/place/Augustiner+an+der+Sankt+Martinskirche/data=!4m7!3m6!1s0x479e2673d92b06e9:0xac0e6adb4973be2a!8m2!3d48.534704!4d12.1516433!16s%2Fg%2F11gzcmff_!19sChIJ6QYr2XMmnkcRKr5zSdtqDqw?authuser=0&hl=de&rclk=1,2026-05-15T18:36:00Z,active,success,
0x479e250017474277:0xe51b42fc5f9811b7,Automatenkramerei,84028,"Seligenthaler Str. 44, 84034 Landshut",4.5,11,Lebensmittel,48.5449751,12.1443407,,,false,,,,,,,https://www.google.com/maps/place/Automatenkramerei/data=!4m7!3m6!1s0x479e250017474277:0xe51b42fc5f9811b7!8m2!3d48.5449751!4d12.1443407!16s%2Fg%2F11y5tnkmfm!19sChIJd0JHFwAlnkcRtxGYX_xCG-U?authuser=0&hl=de&rclk=1,2026-05-15T18:51:03Z,active,success,
0x479e2662aba82733:0x62ff54d7a23cdbea,"Avia Tankstelle, KFZ Meisterbetrieb Helmut Hermes",84028,"Veldener Str. 52, 84036 Landshut",4.2,83,Sonstiges,48.5196272,12.1499214,,,false,,,,,,,"https://www.google.com/maps/place/Avia+Tankstelle,+KFZ+Meisterbetrieb+Helmut+Hermes/data=!4m7!3m6!1s0x479e2662aba82733:0x62ff54d7a23cdbea!8m2!3d48.5196272!4d12.1499214!16s%2Fg%2F11clycty_5!19sChIJMyeoq2ImnkcR6ts8otdU_2I?authuser=0&hl=de&rclk=1",2026-05-15T19:54:43Z,active,success,
0x479e25d9366c2643:0x41d26055cff91e88,Ayurveda Wellness-Oase Lissy Schmitz,84028,"Jürgen-Schumann-Straße 52 a, 84034 Landshut",4.6,11,Friseur / Kosmetik,48.5408764,12.1190448,,,false,,,,,,,https://www.google.com/maps/place/Ayurveda+Wellness-Oase+Lissy+Schmitz/data=!4m7!3m6!1s0x479e25d9366c2643:0x41d26055cff91e88!8m2!3d48.5408764!4d12.1190448!16s%2Fg%2F1hhnm00qw!19sChIJQyZsNtklnkcRiB75z1Vg0kE?authuser=0&hl=de&rclk=1,2026-05-15T19:41:33Z,active,success,
0x479e25e51efe39e1:0xb35176b03ec412d5,B&B HOTEL Landshut,84028,"An d. Überführung 6, 84032 Landshut",4.5,1231,Hotel,48.5496325,12.1389184,,,true,1,1,1,0.08,4.497,Eine Bewertung aufgrund einer Beschwerde wegen Diffamierung entfernt.,https://www.google.com/maps/place/B%26B+HOTEL+Landshut/data=!4m10!3m9!1s0x479e25e51efe39e1:0xb35176b03ec412d5!5m2!4m1!1i2!8m2!3d48.5496325!4d12.1389184!16s%2Fg%2F11fd4234wr!19sChIJ4Tn-HuUlnkcR1RLEPrB2UbM?authuser=0&hl=de&rclk=1,2026-05-15T19:17:01Z,active,success,
0x479e2731d185a5d7:0x7f282932b877d931,BARföG,84028,"Altstadt 195B, 84028 Landshut",4.9,129,Bar / Kneipe,48.5331299,12.1510698,,,false,,,,,,,https://www.google.com/maps/place/BARf%C3%B6G/data=!4m7!3m6!1s0x479e2731d185a5d7:0x7f282932b877d931!8m2!3d48.5331299!4d12.1510698!16s%2Fg%2F11svzpbr_z!19sChIJ16WF0TEnnkcRMdl3uDIpKH8?authuser=0&hl=de&rclk=1,2026-05-15T19:04:15Z,active,success,
0x479e252f39160c91:0x8eec11033eaaed09,BBeautiful,84028,"Altstadt 218, 84028 Landshut",5,19,Friseur / Kosmetik,48.5339637,12.1508253,,,false,,,,,,,https://www.google.com/maps/place/BBeautiful/data=!4m7!3m6!1s0x479e252f39160c91:0x8eec11033eaaed09!8m2!3d48.5339637!4d12.1508253!16s%2Fg%2F11fsmh3_g5!19sChIJkQwWOS8lnkcRCe2qPgMR7I4?authuser=0&hl=de&rclk=1,2026-05-15T19:30:27Z,active,success,
0x479e26736e3d060d:0xec39c35b88cb7acc,BEY KEBAP Landshut,84028,"Altstadt 107, 84028 Landshut",3.2,165,Döner / Kebab,48.5376646,12.1519484,,,false,,,,,,,https://www.google.com/maps/place/BEY+KEBAP+Landshut/data=!4m7!3m6!1s0x479e26736e3d060d:0xec39c35b88cb7acc!8m2!3d48.5376646!4d12.1519484!16s%2Fg%2F11ddydd625!19sChIJDQY9bnMmnkcRzHrLiFvDOew?authuser=0&hl=de&rclk=1,2026-05-15T18:47:25Z,active,success,
0x479e25d82ce56d23:0x626cc4a7ddf40b0e,BJJ Landshut,84028,"Sportzentrum West, Sandnerstraße 7, 84034 Landshut",5,4,Fitness / Sport,48.53129,12.13808,,,false,,,,,,,https://www.google.com/maps/place/BJJ+Landshut/data=!4m7!3m6!1s0x479e25d82ce56d23:0x626cc4a7ddf40b0e!8m2!3d48.53129!4d12.13808!16s%2Fg%2F11g1f8v4pz!19sChIJI23lLNglnkcRDgv03afEbGI?authuser=0&hl=de&rclk=1,2026-05-15T19:39:37Z,active,success,
0x479e2673e0c228b5:0xcda4acee842bf90f,BLACK & BLOND,84028,"Steckengasse 307, 84028 Landshut",4.6,89,Friseur / Kosmetik,48.5355689,12.1529597,,,false,,,,,,,https://www.google.com/maps/place/BLACK+%26+BLOND/data=!4m7!3m6!1s0x479e2673e0c228b5:0xcda4acee842bf90f!8m2!3d48.5355689!4d12.1529597!16s%2Fg%2F11c1nhdjdz!19sChIJtSjC4HMmnkcRD_krhO6spM0?authuser=0&hl=de&rclk=1,2026-05-15T19:21:27Z,active,success,
0x479e267324356ed3:0x5e8913e1bc4c60af,BLECHBox FOOTWEAR-FASHION-TRENDS,84028,"Heilig-Geist-Gasse 416, 84028 Landshut",4.1,22,Sonstiges,48.5385889,12.1539678,,,false,,,,,,,https://www.google.com/maps/place/BLECHBox+FOOTWEAR-FASHION-TRENDS/data=!4m7!3m6!1s0x479e267324356ed3:0x5e8913e1bc4c60af!8m2!3d48.5385889!4d12.1539678!16s%2Fg%2F1v26l2lv!19sChIJ0241JHMmnkcRr2BMvOETiV4?authuser=0&hl=de&rclk=1,2026-05-15T19:42:20Z,active,success,
0x479e25e9831db1b5:0xe86ebd7311b2428a,BROTmacher Breu u. Oberprieler GmbH,84028,"Weiherbachstraße 2, 84034 Landshut",4.1,109,Bäckerei,48.5352463,12.0843889,,,false,,,,,,,https://www.google.com/maps/place/BROTmacher+Breu+u.+Oberprieler+GmbH/data=!4m7!3m6!1s0x479e25e9831db1b5:0xe86ebd7311b2428a!8m2!3d48.5352463!4d12.0843889!16s%2Fg%2F11hmjr7j63!19sChIJtbEdg-klnkcRikKyEXO9bug?authuser=0&hl=de&rclk=1,2026-05-15T19:00:27Z,active,success,
0x479e2672e4b6105f:0x4217698b8edc1be8,BROTmacher Breu u. Oberprieler GmbH,84028,"Neustadt 531, 84028 Landshut",4.4,44,Bäckerei,48.53736,12.15456,,,false,,,,,,,https://www.google.com/maps/place/BROTmacher+Breu+u.+Oberprieler+GmbH/data=!4m7!3m6!1s0x479e2672e4b6105f:0x4217698b8edc1be8!8m2!3d48.53736!4d12.15456!16s%2Fg%2F1ptx9q8df!19sChIJXxC25HImnkcR6BvcjotpF0I?authuser=0&hl=de&rclk=1,2026-05-15T18:52:17Z,active,success,
0x479e25da902c266b:0x29c98c6b038df8a,BROTmacher Breu u. Oberprieler GmbH,84028,"Klötzlmüllerstraße 85, 84034 Landshut",4.1,54,Bäckerei,48.5325184,12.1308391,,,false,,,,,,,https://www.google.com/maps/place/BROTmacher+Breu+u.+Oberprieler+GmbH/data=!4m7!3m6!1s0x479e25da902c266b:0x29c98c6b038df8a!8m2!3d48.5325184!4d12.1308391!16s%2Fg%2F1pw3ycyvt!19sChIJayYskNolnkcRit84sMaYnAI?authuser=0&hl=de&rclk=1,2026-05-15T18:58:46Z,active,success,
0x479e259e90d05d49:0xa517213941714361,BROTmacher Breu u. Oberprieler GmbH,84028,"Sonnenring 1, 84032 Altdorf",4,67,Bäckerei,48.54939,12.09984,,,false,,,,,,,https://www.google.com/maps/place/BROTmacher+Breu+u.+Oberprieler+GmbH/data=!4m7!3m6!1s0x479e259e90d05d49:0xa517213941714361!8m2!3d48.54939!4d12.09984!16s%2Fg%2F1tvt9b6c!19sChIJSV3QkJ4lnkcRYUNxQTkhF6U?authuser=0&hl=de&rclk=1,2026-05-15T19:01:37Z,active,success,
0x479e26713dc8168d:0x9c94d9f6eebeb2f4,BROTmacher Breu u. Oberprieler GmbH,84028,"Altstadt 299, 84028 Landshut",4.2,68,Bäckerei,48.5355981,12.1517983,,,false,,,,,,,https://www.google.com/maps/place/BROTmacher+Breu+u.+Oberprieler+GmbH/data=!4m7!3m6!1s0x479e26713dc8168d:0x9c94d9f6eebeb2f4!8m2!3d48.5355981!4d12.1517983!16s%2Fg%2F1ptwcc681!19sChIJjRbIPXEmnkcR9LK-7vbZlJw?authuser=0&hl=de&rclk=1,2026-05-15T18:42:41Z,active,success,
0x479e25e179693e63:0xec52c5fc4ae43774,BROTmacher Breu u. Oberprieler GmbH,84028,"Seligenthaler Str. 50, 84034 Landshut",4.2,127,Bäckerei,48.5451312,12.1435643,,,false,,,,,,,https://www.google.com/maps/place/BROTmacher+Breu+u.+Oberprieler+GmbH/data=!4m7!3m6!1s0x479e25e179693e63:0xec52c5fc4ae43774!8m2!3d48.5451312!4d12.1435643!16s%2Fg%2F1tfjdjj1!19sChIJYz5peeElnkcRdDfkSvzFUuw?authuser=0&hl=de&rclk=1,2026-05-15T18:57:27Z,active,success,
0x479e25850e497db5:0xcfef0bb6e8552541,BROTmacher Breu u. Oberprieler GmbH,84028,"Dekan-Wagner-Straße 4, 84032 Altdorf",4.3,89,Bäckerei,48.5562071,12.1093841,,,false,,,,,,,https://www.google.com/maps/place/BROTmacher+Breu+u.+Oberprieler+GmbH/data=!4m7!3m6!1s0x479e25850e497db5:0xcfef0bb6e8552541!8m2!3d48.5562071!4d12.1093841!16s%2Fg%2F11cjj9c3p4!19sChIJtX1JDoUlnkcRQSVV6LYL788?authuser=0&hl=de&rclk=1,2026-05-15T19:00:55Z,active,success,
0x479e2676d19e2737:0x93e1c6d41682fce0,BROTmacher Breu und Oberprieler GmbH Drive in,84028,"Wittstraße 2a, 84036 Landshut",4.3,654,Bäckerei,48.5327935,12.1482552,,,false,,,,,,,https://www.google.com/maps/place/BROTmacher+Breu+und+Oberprieler+GmbH+Drive+in/data=!4m7!3m6!1s0x479e2676d19e2737:0x93e1c6d41682fce0!8m2!3d48.5327935!4d12.1482552!16s%2Fg%2F11c58v0qt5!19sChIJNyee0XYmnkcR4PyCFtTG4ZM?authuser=0&hl=de&rclk=1,2026-05-15T18:41:29Z,active,success,
0x479e279a9b783a83:0x64c95ccd1ec28033,Backstube Wünsche,84028,"Porschestraße 24-28, 84030 Landshut",3.8,12,Bäckerei,48.5535905,12.1585406,,,false,,,,,,,https://www.google.com/maps/place/Backstube+W%C3%BCnsche/data=!4m7!3m6!1s0x479e279a9b783a83:0x64c95ccd1ec28033!8m2!3d48.5535905!4d12.1585406!16s%2Fg%2F11f8bzy170!19sChIJgzp4m5onnkcRM4DCHs1cyWQ?authuser=0&hl=de&rclk=1,2026-05-15T18:59:52Z,active,success,
0x479e25e159220fdb:0xe293e3fada2e57b6,Bahnhof Apotheke,84028,"Seligenthaler Str. 60, 84034 Landshut",4.4,35,Apotheke,48.5455117,12.1419261,,,false,,,,,,,https://www.google.com/maps/place/Bahnhof+Apotheke/data=!4m7!3m6!1s0x479e25e159220fdb:0xe293e3fada2e57b6!8m2!3d48.5455117!4d12.1419261!16s%2Fg%2F1tj83vcm!19sChIJ2w8iWeElnkcRtlcu2vrjk-I?authuser=0&hl=de&rclk=1,2026-05-15T19:53:03Z,active,success,
0x479e2700747371bd:0x4642861ecfde843f,Balkan & International Imbiss,84028,"Neidenburger Str. 5, 84030 Landshut",4.5,18,Imbiss,48.5552047,12.1524066,,,true,1,1,1,5.26,4.316,Eine Bewertung aufgrund einer Beschwerde wegen Diffamierung entfernt.,https://www.google.com/maps/place/Balkan+%26+International+Imbiss/data=!4m7!3m6!1s0x479e2700747371bd:0x4642861ecfde843f!8m2!3d48.5552047!4d12.1524066!16s%2Fg%2F11vxcvx25f!19sChIJvXFzdAAnnkcRP4Tezx6GQkY?authuser=0&hl=de&rclk=1,2026-05-15T18:52:49Z,temporarily_closed,success,
0x479e27ba7d3a763b:0xec804b093873c383,Balkan Fusion Landshut,84028,"Ludwig-Erhard-Straße 9, 84034 Landshut",4.8,55,Imbiss,48.5404125,12.1004253,,,false,,,,,,,https://www.google.com/maps/place/Balkan+Fusion+Landshut/data=!4m7!3m6!1s0x479e27ba7d3a763b:0xec804b093873c383!8m2!3d48.5404125!4d12.1004253!16s%2Fg%2F11wfvjp9z7!19sChIJO3Y6fbonnkcRg8NzOAlLgOw?authuser=0&hl=de&rclk=1,2026-05-15T18:51:09Z,active,success,
0x479e279601c702e3:0xcd687039ab6c0afb,Balkan Grill Landshut - Halal Fastfood,84028,"Siemensstraße 18, 84030 Landshut",5,69,Imbiss,48.5559772,12.15329,,,false,,,,,,,https://www.google.com/maps/place/Balkan+Grill+Landshut+-+Halal+Fastfood/data=!4m7!3m6!1s0x479e279601c702e3:0xcd687039ab6c0afb!8m2!3d48.5559772!4d12.15329!16s%2Fg%2F11xlg2gghv!19sChIJ4wLHAZYnnkcR-wpsqzlwaM0?authuser=0&hl=de&rclk=1,2026-05-15T18:47:30Z,active,success,
0x479e27007ae484eb:0xd3fd71462ac7bc65,Bar Centrale,84028,"Altstadt 25, 84028 Landshut",4.7,65,Café / Konditorei,48.533508,12.14999,,,false,,,,,,,https://www.google.com/maps/place/Bar+Centrale/data=!4m7!3m6!1s0x479e27007ae484eb:0xd3fd71462ac7bc65!8m2!3d48.533508!4d12.14999!16s%2Fg%2F11vy_8045c!19sChIJ64TkegAnnkcRZbzHKkZx_dM?authuser=0&hl=de&rclk=1,2026-05-15T19:03:56Z,active,success,
0x479e25ee0c0ce41d:0x7c5de98ca6c7ee9c,Barbara-Apotheke / CannabisFürMich,84028,"Fliederstraße 46, 84032 Landshut",4.6,259,Apotheke,48.5507458,12.1300396,,,true,51,100,75.5,22.57,3.787,51 bis 100 Bewertungen aufgrund von Beschwerden wegen Diffamierung entfernt.,https://www.google.com/maps/place/Barbara-Apotheke+%2F+CannabisF%C3%BCrMich/data=!4m7!3m6!1s0x479e25ee0c0ce41d:0x7c5de98ca6c7ee9c!8m2!3d48.5507458!4d12.1300396!16s%2Fg%2F1tdmjgjk!19sChIJHeQMDO4lnkcRnO7HpozpXXw?authuser=0&hl=de&rclk=1,2026-05-15T19:53:19Z,active,success,
0x479e276b9752ef41:0x592cd43d30a324a1,Barbieria Landshut,84028,"Innere Münchener Str. 7A, 84036 Landshut",4.9,272,Friseur / Kosmetik,48.5304103,12.1479772,,,false,,,,,,,https://www.google.com/maps/place/Barbieria+Landshut/data=!4m7!3m6!1s0x479e276b9752ef41:0x592cd43d30a324a1!8m2!3d48.5304103!4d12.1479772!16s%2Fg%2F11h37y8z7k!19sChIJQe9Sl2snnkcRoSSjMD3ULFk?authuser=0&hl=de&rclk=1,2026-05-15T19:25:15Z,active,success,
0x479e2623fcc18a09:0x69264744e174fb7b,Beauty Atelier Landshut / Dauerhafte Haarentfernung/ Kosmetik,84028,"Neustadt 525, 84028 Landshut",5,73,Sonstiges,48.5369041,12.1546005,,,false,,,,,,,https://www.google.com/maps/place/Beauty+Atelier+Landshut+%2F+Dauerhafte+Haarentfernung%2F+Kosmetik/data=!4m7!3m6!1s0x479e2623fcc18a09:0x69264744e174fb7b!8m2!3d48.5369041!4d12.1546005!16s%2Fg%2F11c461ny6j!19sChIJCYrB_CMmnkcRe_t04URHJmk?authuser=0&hl=de&rclk=1,2026-05-15T19:27:58Z,active,success,
0x479e2673ed7d6c6d:0x2d67750cfaebf51d,Beauty Toprak,84028,"Altstadt 75, 84028 Landshut",4.7,28,Sonstiges,48.53571,12.1508,,,false,,,,,,,https://www.google.com/maps/place/Beauty+Toprak/data=!4m7!3m6!1s0x479e2673ed7d6c6d:0x2d67750cfaebf51d!8m2!3d48.53571!4d12.1508!16s%2Fg%2F11b700sq8b!19sChIJbWx97XMmnkcRHfXr-gx1Zy0?authuser=0&hl=de&rclk=1,2026-05-15T19:30:04Z,active,success,
0x479e276a791ac2cd:0x9c9fac84cd951bfb,Benefit Cosmetics BrowBar,84028,"Theaterstraße 55 - 57, 84028 Landshut",4.9,35,Sonstiges,48.53489,12.1503,,,false,,,,,,,https://www.google.com/maps/place/Benefit+Cosmetics+BrowBar/data=!4m7!3m6!1s0x479e276a791ac2cd:0x9c9fac84cd951bfb!8m2!3d48.53489!4d12.1503!16s%2Fg%2F11h35p8_1c!19sChIJzcIaeWonnkcR-xuVzYSsn5w?authuser=0&hl=de&rclk=1,2026-05-15T19:34:38Z,active,success,
0x479e271a585cabc9:0xc436361db39a5d36,Beyt Beytak Abu Ali,84028,"Regierungsstraße 568, 84034 Landshut",4.9,197,Restaurant,48.5367111,12.15594,,,true,2,5,3.5,1.75,4.832,Zwei bis fünf Bewertungen aufgrund von Beschwerden wegen Diffamierung entfernt.,https://www.google.com/maps/place/Beyt+Beytak+Abu+Ali/data=!4m7!3m6!1s0x479e271a585cabc9:0xc436361db39a5d36!8m2!3d48.5367111!4d12.15594!16s%2Fg%2F11szkm8mt9!19sChIJyatcWBonnkcRNl2asx02NsQ?authuser=0&hl=de&rclk=1,2026-05-15T18:49:01Z,active,success,
0x479e267130195555:0xd140b8e42686e2ec,"Biergarten ""Drei-Helmen""",84028,"Dreifaltigkeitspl. 15, 84028 Landshut",,,Bar / Kneipe,48.5328256,12.1494641,,,false,,,,,,,https://www.google.com/maps/place/Biergarten+%22Drei-Helmen%22/data=!4m7!3m6!1s0x479e267130195555:0xd140b8e42686e2ec!8m2!3d48.5328256!4d12.1494641!16s%2Fg%2F11fmz3jqq6!19sChIJVVUZMHEmnkcR7OKGJuS4QNE?authuser=0&hl=de&rclk=1,2026-05-15T19:07:47Z,permanently_closed,success,
0x479e24c50014aba9:0x84d6e5f0e29166ab,Biergarten Ellermühle,84028,"Ellermühle 8, 84034 Landshut",4.4,2690,Bar / Kneipe,48.5176373,12.0430186,,,false,,,,,,,https://www.google.com/maps/place/Biergarten+Ellerm%C3%BChle/data=!4m7!3m6!1s0x479e24c50014aba9:0x84d6e5f0e29166ab!8m2!3d48.5176373!4d12.0430186!16s%2Fg%2F1trppsgs!19sChIJqasUAMUknkcRq2aR4vDl1oQ?authuser=0&hl=de&rclk=1,2026-05-15T19:07:09Z,active,success,
0x479e2674647da439:0xb48d92ac3c60e053,Biergarten Zur Insel,84028,"Badstraße 16, 84028 Landshut",4.2,248,Bar / Kneipe,48.5369677,12.1492781,,,false,,,,,,,https://www.google.com/maps/place/Biergarten+Zur+Insel/data=!4m7!3m6!1s0x479e2674647da439:0xb48d92ac3c60e053!8m2!3d48.5369677!4d12.1492781!16s%2Fg%2F11fxdtk4h3!19sChIJOaR9ZHQmnkcRU-BgPKySjbQ?authuser=0&hl=de&rclk=1,2026-05-15T19:07:32Z,permanently_closed,success,
0x479e2598a8324737:0xb2edefa7f6accf6a,Bierparadies Altdorf,84028,"Moosstraße 41, 84032 Altdorf",4.5,945,Bar / Kneipe,48.5451318,12.1011682,,,false,,,,,,,https://www.google.com/maps/place/Bierparadies+Altdorf/data=!4m7!3m6!1s0x479e2598a8324737:0xb2edefa7f6accf6a!8m2!3d48.5451318!4d12.1011682!16s%2Fg%2F1tgh1z9s!19sChIJN0cyqJglnkcRas-s9qfv7bI?authuser=0&hl=de&rclk=1,2026-05-15T19:07:04Z,active,success,
0x479e278c6ce10aa7:0x675c8b8681f37e7a,Biobäckerei Wagner,84028,"Neustadt 466, 84028 Landshut",4.3,46,Bäckerei,48.53543,12.15348,,,false,,,,,,,https://www.google.com/maps/place/Biob%C3%A4ckerei+Wagner/data=!4m7!3m6!1s0x479e278c6ce10aa7:0x675c8b8681f37e7a!8m2!3d48.53543!4d12.15348!16s%2Fg%2F11yh1w6m82!19sChIJpwrhbIwnnkcRen7zgYaLXGc?authuser=0&hl=de&rclk=1,2026-05-15T18:56:21Z,active,success,
0x479e25705070c6bb:0x1a672e3ff34cd49f,Boardinghaus Bayerwaldpark,84028,"Waldkirchener Str. 6, 84032 Landshut",4.6,49,Sonstiges,48.5603343,12.1400365,,,false,,,,,,,https://www.google.com/maps/place/Boardinghaus+Bayerwaldpark/data=!4m10!3m9!1s0x479e25705070c6bb:0x1a672e3ff34cd49f!5m2!4m1!1i2!8m2!3d48.5603343!4d12.1400365!16s%2Fg%2F11gtym2jcm!19sChIJu8ZwUHAlnkcRn9RM8z8uZxo?authuser=0&hl=de&rclk=1,2026-05-15T19:18:42Z,active,success,
0x479e258460b6295b:0x21dbb6239ab07913,Boardinghouse Wadenspanner,84028,"Kirchgasse 2, 84032 Altdorf",4.5,261,Hotel,48.5572452,12.1071558,,,false,,,,,,,https://www.google.com/maps/place/Boardinghouse+Wadenspanner/data=!4m10!3m9!1s0x479e258460b6295b:0x21dbb6239ab07913!5m2!4m1!1i2!8m2!3d48.5572452!4d12.1071558!16s%2Fg%2F1tgf6s8t!19sChIJWym2YIQlnkcRE3mwmiO22yE?authuser=0&hl=de&rclk=1,2026-05-15T19:19:00Z,active,success,
0x479e25ef969a6743:0xf74683cff53ce7a9,Boardinghouse- Landshut,84028,"Sankt-Wolfgang-Platz 10, 84032 Landshut",4.2,105,Hotel,48.5503006,12.134063,,,false,,,,,,,https://www.google.com/maps/place/Boardinghouse-+Landshut/data=!4m10!3m9!1s0x479e25ef969a6743:0xf74683cff53ce7a9!5m2!4m1!1i2!8m2!3d48.5503006!4d12.134063!16s%2Fg%2F11c6v97f34!19sChIJQ2ealu8lnkcRqec89c-DRvc?authuser=0&hl=de&rclk=1,2026-05-15T19:17:47Z,active,success,
0x479e2717fca2c9a9:0x5cfa1eb2f2b709d3,BodyCare Plus - Beckenbodentraining Landshut,84028,"Altstadt 296, 84028 Landshut",5,6,Sonstiges,48.5353917,12.1515148,,,false,,,,,,,https://www.google.com/maps/place/BodyCare+Plus+-+Beckenbodentraining+Landshut/data=!4m7!3m6!1s0x479e2717fca2c9a9:0x5cfa1eb2f2b709d3!8m2!3d48.5353917!4d12.1515148!16s%2Fg%2F11y1w_81j2!19sChIJqcmi_BcnnkcR0wm38rIe-lw?authuser=0&hl=de&rclk=1,2026-05-15T19:40:24Z,active,success,
0x479e27dc803117df:0xedc4f0c24fde2aa0,Bonnie & Clyde Hair-Lounge,84028,"Neustadt 528, 84028 Landshut",4.9,142,Friseur / Kosmetik,48.5371267,12.1545809,,,false,,,,,,,https://www.google.com/maps/place/Bonnie+%26+Clyde+Hair-Lounge/data=!4m7!3m6!1s0x479e27dc803117df:0xedc4f0c24fde2aa0!8m2!3d48.5371267!4d12.1545809!16s%2Fg%2F11jh2zf2ln!19sChIJ3xcxgNwnnkcRoCreT8LwxO0?authuser=0&hl=de&rclk=1,2026-05-15T19:20:46Z,active,success,
0x479e26236dc6c44d:0x7ad7687f1424d1c0,Boxclub S.C.Bavaria 20 Landshut,84028,"Liesl-Karlstadt-Weg 3, 84036 Landshut",4.9,37,Verein,48.5480686,12.1813243,,,false,,,,,,,https://www.google.com/maps/place/Boxclub+S.C.Bavaria+20+Landshut/data=!4m7!3m6!1s0x479e26236dc6c44d:0x7ad7687f1424d1c0!8m2!3d48.5480686!4d12.1813243!16s%2Fg%2F11bzyq1lp3!19sChIJTcTGbSMmnkcRwNEkFH9o13o?authuser=0&hl=de&rclk=1,2026-05-15T19:12:06Z,active,success,
0x479e2678b411af8b:0x557a7cc55ad9a101,Brauerei C. Wittmann,84028,"Bachstraße 12, 84036 Landshut",4.8,37,Bar / Kneipe,48.5258079,12.140248,,,false,,,,,,,https://www.google.com/maps/place/Brauerei+C.+Wittmann/data=!4m7!3m6!1s0x479e2678b411af8b:0x557a7cc55ad9a101!8m2!3d48.5258079!4d12.140248!16s%2Fg%2F11crzr3457!19sChIJi68RtHgmnkcRAaHZWsV8elU?authuser=0&hl=de&rclk=1,2026-05-15T19:07:59Z,active,success,
0x479e2676ab2de26d:0xc06a60c1d65de15d,Brauerei C. Wittmann GmbH & Co. KG,84028,"Ländgasse 50, 84028 Landshut",4.4,13,Bar / Kneipe,48.53452,12.14941,,,false,,,,,,,https://www.google.com/maps/place/Brauerei+C.+Wittmann+GmbH+%26+Co.+KG/data=!4m7!3m6!1s0x479e2676ab2de26d:0xc06a60c1d65de15d!8m2!3d48.53452!4d12.14941!16s%2Fg%2F1tjwgqz7!19sChIJbeItq3YmnkcRXeFd1sFgasA?authuser=0&hl=de&rclk=1,2026-05-15T19:08:07Z,active,success,
0x479e25c6912be52b:0xbc4f6416510b804b,Brauerei C. Wittmann OHG,84028,"Watzmannstraße 58-60, 84034 Landshut",5,3,Sonstiges,48.5360278,12.122072,,,false,,,,,,,https://www.google.com/maps/place/Brauerei+C.+Wittmann+OHG/data=!4m7!3m6!1s0x479e25c6912be52b:0xbc4f6416510b804b!8m2!3d48.5360278!4d12.122072!16s%2Fg%2F11dzd9x03_!19sChIJK-UrkcYlnkcRS4ALURZkT7w?authuser=0&hl=de&rclk=1,2026-05-15T19:08:32Z,active,success,
0x479e2766bef20207:0x9a45657e2a0dd241,BrickBar,84028,"Schirmgasse 264, 84028 Landshut",4.5,94,Bar / Kneipe,48.5350139,12.1517119,,,false,,,,,,,https://www.google.com/maps/place/BrickBar/data=!4m7!3m6!1s0x479e2766bef20207:0x9a45657e2a0dd241!8m2!3d48.5350139!4d12.1517119!16s%2Fg%2F11f66h1zkk!19sChIJBwLyvmYnnkcRQdINKn5lRZo?authuser=0&hl=de&rclk=1,2026-05-15T19:04:22Z,active,success,
0x479e26c090f1b06b:0xc7ff635ee149a929,Bridge Club Landshut,84028,"Leukstraße 7C, 84028 Landshut",5,1,Verein,48.5394883,12.1496441,,,false,,,,,,,https://www.google.com/maps/place/Bridge+Club+Landshut/data=!4m7!3m6!1s0x479e26c090f1b06b:0xc7ff635ee149a929!8m2!3d48.5394883!4d12.1496441!16s%2Fg%2F11g1f8w8gz!19sChIJa7DxkMAmnkcRKalJ4V5j_8c?authuser=0&hl=de&rclk=1,2026-05-15T19:09:20Z,active,success,
0x479e27019e3b1a5d:0xe4c1ea9141c23ad9,Brothers Barbershop,84028,"Schwestergasse 6, 84034 Landshut",5,15,Friseur / Kosmetik,48.5426896,12.1493475,,,false,,,,,,,https://www.google.com/maps/place/Brothers+Barbershop/data=!4m7!3m6!1s0x479e27019e3b1a5d:0xe4c1ea9141c23ad9!8m2!3d48.5426896!4d12.1493475!16s%2Fg%2F11vyw3vcnk!19sChIJXRo7ngEnnkcR2TrCQZHqweQ?authuser=0&hl=de&rclk=1,2026-05-15T19:23:43Z,active,success,
0xac3fdfbcdc817e59:0x45c162953232ee74,Brotstation - Brot Backkurse mit Sauerteig und Dinkelmehl,84028,"Lehbühlstraße 19, 84034 Landshut",5,1,Sonstiges,48.5468536,12.1515058,,,false,,,,,,,https://www.google.com/maps/place/Brotstation+-+Brot+Backkurse+mit+Sauerteig+und+Dinkelmehl/data=!4m7!3m6!1s0xac3fdfbcdc817e59:0x45c162953232ee74!8m2!3d48.5468536!4d12.1515058!16s%2Fg%2F11wr4nbhwq!19sChIJWX6B3LzfP6wRdO4yMpViwUU?authuser=0&hl=de&rclk=1,2026-05-15T19:01:06Z,active,success,
0x479e260cafb37379:0x22078c8a1dbb1810,Brotstation Inh. Marc Retzer,84028,"Lehbühlstraße 19, 84034 Landshut",4.9,17,Bäckerei,48.5468318,12.151468,,,false,,,,,,,https://www.google.com/maps/place/Brotstation+Inh.+Marc+Retzer/data=!4m7!3m6!1s0x479e260cafb37379:0x22078c8a1dbb1810!8m2!3d48.5468318!4d12.151468!16s%2Fg%2F1tfzwgzk!19sChIJeXOzrwwmnkcREBi7HYqMByI?authuser=0&hl=de&rclk=1,2026-05-15T19:00:06Z,active,success,
0x479e27aa9042579d:0x305a28048b12571,Buchi's Stadl Heim,84028,"Altstadt 76, 84028 Landshut",4.7,24,Bar / Kneipe,48.5357586,12.1509969,,,false,,,,,,,https://www.google.com/maps/place/Buchi%27s+Stadl+Heim/data=!4m7!3m6!1s0x479e27aa9042579d:0x305a28048b12571!8m2!3d48.5357586!4d12.1509969!16s%2Fg%2F11vj3fbbcd!19sChIJnVdCkKonnkcRcSWxSICiBQM?authuser=0&hl=de&rclk=1,2026-05-15T19:04:29Z,active,success,
0x479e260076a2ec0d:0x5b3aeccb05c13279,Buchner & Sohn Inh.: Herbert Buchner GmbH & Co KG,84028,"Wankelweg 4, 84030 Landshut",3.8,16,Lebensmittel,48.558058,12.1533536,,,false,,,,,,,https://www.google.com/maps/place/Buchner+%26+Sohn+Inh.:+Herbert+Buchner+GmbH+%26+Co+KG/data=!4m7!3m6!1s0x479e260076a2ec0d:0x5b3aeccb05c13279!8m2!3d48.558058!4d12.1533536!16s%2Fg%2F1tgpl_zh!19sChIJDeyidgAmnkcReTLBBcvsOls?authuser=0&hl=de&rclk=1,2026-05-15T19:51:26Z,temporarily_closed,success,
0x479e25a82d7b8133:0xbc7ac2237c74d513,Buchners Spezialitäten Christian Buchner e.K.,84028,"Freyung 607, 84028 Landshut",3.1,12,Sonstiges,48.5362148,12.1566428,,,false,,,,,,,https://www.google.com/maps/place/Buchners+Spezialit%C3%A4ten+Christian+Buchner+e.K./data=!4m7!3m6!1s0x479e25a82d7b8133:0xbc7ac2237c74d513!8m2!3d48.5362148!4d12.1566428!16s%2Fg%2F11btlsfp7l!19sChIJM4F7LaglnkcRE9V0fCPCerw?authuser=0&hl=de&rclk=1,2026-05-15T19:51:06Z,active,success,
0x479e25fde38fc5a1:0xaceb6b86f97d769b,Burger King Landshut,84028,"Siemensstraße 11, 84030 Landshut",3.1,2225,Imbiss,48.555,12.1502778,,,false,,,,,,,https://www.google.com/maps/place/Burger+King+Landshut/data=!4m7!3m6!1s0x479e25fde38fc5a1:0xaceb6b86f97d769b!8m2!3d48.555!4d12.1502778!16s%2Fg%2F1tscm_07!19sChIJocWP4_0lnkcRm3Z9-YZr66w?authuser=0&hl=de&rclk=1,2026-05-15T18:50:49Z,active,success,
0x479e27a4854984e5:0x56e8651367f6ce02,Burger King Landshut,84028,"Am Alten Viehmarkt 5, 84028 Landshut",3.1,160,Imbiss,48.539401,12.1561002,,,false,,,,,,,https://www.google.com/maps/place/Burger+King+Landshut/data=!4m7!3m6!1s0x479e27a4854984e5:0x56e8651367f6ce02!8m2!3d48.539401!4d12.1561002!16s%2Fg%2F11fpd9t8bn!19sChIJ5YRJhaQnnkcRAs72ZxNl6FY?authuser=0&hl=de&rclk=1,2026-05-15T18:52:43Z,active,success,
0x479e27a7b4650801:0x6ebda688c99b983a,Burgerlon,84028,"Heilig-Geist-Gasse 401, 84028 Landshut",4.8,589,Burger,48.5386318,12.1532574,,,false,,,,,,,https://www.google.com/maps/place/Burgerlon/data=!4m7!3m6!1s0x479e27a7b4650801:0x6ebda688c99b983a!8m2!3d48.5386318!4d12.1532574!16s%2Fg%2F11h1dcrdtr!19sChIJAQhltKcnnkcROpibyYimvW4?authuser=0&hl=de&rclk=1,2026-05-15T18:36:48Z,active,success,
0x479e276ffcc1599d:0x1b1710e97671e5c6,BuxxBar,84028,"Altstadt 194, 84028 Landshut",4.7,15,Bar / Kneipe,48.5332702,12.1504991,,,false,,,,,,,https://www.google.com/maps/place/BuxxBar/data=!4m7!3m6!1s0x479e276ffcc1599d:0x1b1710e97671e5c6!8m2!3d48.5332702!4d12.1504991!16s%2Fg%2F11vy6l9_f3!19sChIJnVnB_G8nnkcRxuVxdukQFxs?authuser=0&hl=de&rclk=1,2026-05-15T19:04:49Z,active,success,
0x479e2604e7d81431:0xee29f67c4f636869,Bäcker Bachmeier,84028,"im Kaufland, Alte Regensburger Str. 21, 84030 Landshut",3.4,17,Bäckerei,48.5521874,12.1618223,,,false,,,,,,,https://www.google.com/maps/place/B%C3%A4cker+Bachmeier/data=!4m7!3m6!1s0x479e2604e7d81431:0xee29f67c4f636869!8m2!3d48.5521874!4d12.1618223!16s%2Fg%2F11b6dg3x_z!19sChIJMRTY5wQmnkcRaWhjT3z2Ke4?authuser=0&hl=de&rclk=1,2026-05-15T19:00:41Z,active,success,
0x479e25a38fa46a3b:0xb820fb4c4ba2ad8c,Bäcker Bachmeier,84028,"im Landshut-Park, Ludwig-Erhard-Straße 9, 84034 Landshut",2.5,35,Bäckerei,48.5403581,12.1001712,,,false,,,,,,,https://www.google.com/maps/place/B%C3%A4cker+Bachmeier/data=!4m7!3m6!1s0x479e25a38fa46a3b:0xb820fb4c4ba2ad8c!8m2!3d48.5403581!4d12.1001712!16s%2Fg%2F11g4fdh655!19sChIJO2qkj6MlnkcRjK2iS0z7ILg?authuser=0&hl=de&rclk=1,2026-05-15T19:01:01Z,active,success,
0x479e26739dd7da27:0xd61213018681644a,Bäcker Bachmeier,84028,"Café, Altstadt 337, 84028 Landshut",3.2,24,Bäckerei,48.5366893,12.1521771,,,false,,,,,,,https://www.google.com/maps/place/B%C3%A4cker+Bachmeier/data=!4m7!3m6!1s0x479e26739dd7da27:0xd61213018681644a!8m2!3d48.5366893!4d12.1521771!16s%2Fg%2F11gh2qxzg5!19sChIJJ9rXnXMmnkcRSmSBhgETEtY?authuser=0&hl=de&rclk=1,2026-05-15T18:58:30Z,active,success,
0x479e26073031ed95:0xdb828d89f5473efb,Bäcker Bachmeier,84028,"im OBI, Neidenburger Str. 1, 84030 Landshut",2.6,25,Bäckerei,48.5539424,12.1538334,,,false,,,,,,,https://www.google.com/maps/place/B%C3%A4cker+Bachmeier/data=!4m7!3m6!1s0x479e26073031ed95:0xdb828d89f5473efb!8m2!3d48.5539424!4d12.1538334!16s%2Fg%2F1tfgc6ny!19sChIJle0xMAcmnkcR-z5H9YmNgts?authuser=0&hl=de&rclk=1,2026-05-15T19:00:00Z,active,success,
0x479e28abec58be41:0x23832846ee1954a2,Bäcker Bachmeier,84028,"im REWE, Industriestraße 16, 84030 Ergolding",3.8,73,Bäckerei,48.5631552,12.1603974,,,false,,,,,,,https://www.google.com/maps/place/B%C3%A4cker+Bachmeier/data=!4m7!3m6!1s0x479e28abec58be41:0x23832846ee1954a2!8m2!3d48.5631552!4d12.1603974!16s%2Fg%2F11f5h3f4b9!19sChIJQb5Y7KsonkcRolQZ7kYogyM?authuser=0&hl=de&rclk=1,2026-05-15T19:02:04Z,active,success,
0x479e25de3b54b1cf:0x7230bfee99dd3b29,Bäcker Bachmeier,84028,"REWE, Rennweg 19, 84034 Landshut",3.5,16,Bäckerei,48.5401797,12.1408192,,,false,,,,,,,https://www.google.com/maps/place/B%C3%A4cker+Bachmeier/data=!4m7!3m6!1s0x479e25de3b54b1cf:0x7230bfee99dd3b29!8m2!3d48.5401797!4d12.1408192!16s%2Fg%2F11gh2qvr7k!19sChIJz7FUO94lnkcRKTvdme6_MHI?authuser=0&hl=de&rclk=1,2026-05-15T18:59:18Z,active,success,
0x479e260d35942763:0xb58cf132f9be8986,Bäcker Bachmeier,84028,"Am Alten Viehmarkt 55, 84307 Landshut",3.1,65,Bäckerei,48.5395073,12.1559437,,,false,,,,,,,https://www.google.com/maps/place/B%C3%A4cker+Bachmeier/data=!4m7!3m6!1s0x479e260d35942763:0xb58cf132f9be8986!8m2!3d48.5395073!4d12.1559437!16s%2Fg%2F1tdfb2ps!19sChIJYyeUNQ0mnkcRhom--TLxjLU?authuser=0&hl=de&rclk=1,2026-05-15T18:56:48Z,active,success,
0x479e2888f7fdfded:0xcc089b307e3876de,Bäckerei Betz Auloh,84028,"Neckarpl. 8, 84036 Landshut",4.8,82,Bäckerei,48.5660154,12.2071215,,,false,,,,,,,https://www.google.com/maps/place/B%C3%A4ckerei+Betz+Auloh/data=!4m7!3m6!1s0x479e2888f7fdfded:0xcc089b307e3876de!8m2!3d48.5660154!4d12.2071215!16s%2Fg%2F11bc7rgzys!19sChIJ7f3994gonkcR3nY4fjCbCMw?authuser=0&hl=de&rclk=1,2026-05-15T19:00:13Z,active,success,
0x479e26160d343045:0x15738174bf37536c,Bäckerei Betz Landshut,84028,"Niedermayerstraße 24c, 84028 Landshut",4.8,216,Bäckerei,48.543163,12.1722482,,,false,,,,,,,https://www.google.com/maps/place/B%C3%A4ckerei+Betz+Landshut/data=!4m7!3m6!1s0x479e26160d343045:0x15738174bf37536c!8m2!3d48.543163!4d12.1722482!16s%2Fg%2F1xb2ck5h!19sChIJRTA0DRYmnkcRbFM3v3SBcxU?authuser=0&hl=de&rclk=1,2026-05-15T18:44:51Z,active,success,
0x479e26725ff21d17:0x2c4b0a19de2d33c3,Bäckerei Bücherl,84028,"Regierungsstraße 562, 84028 Landshut",4.6,45,Bäckerei,48.5365002,12.1553276,,,false,,,,,,,https://www.google.com/maps/place/B%C3%A4ckerei+B%C3%BCcherl/data=!4m7!3m6!1s0x479e26725ff21d17:0x2c4b0a19de2d33c3!8m2!3d48.5365002!4d12.1553276!16s%2Fg%2F1x6q0rk5!19sChIJFx3yX3ImnkcRwzMt3hkKSyw?authuser=0&hl=de&rclk=1,2026-05-15T18:56:29Z,active,success,
0x479e259d1866c7f5:0x11fb1b49ad052918,Bäckerei Bücherl,84028,"Robert-Koch-Straße 1, 84034 Landshut",3.8,6,Bäckerei,48.5380488,12.1380003,,,false,,,,,,,https://www.google.com/maps/place/B%C3%A4ckerei+B%C3%BCcherl/data=!4m7!3m6!1s0x479e259d1866c7f5:0x11fb1b49ad052918!8m2!3d48.5380488!4d12.1380003!16s%2Fg%2F11rcs5rvgv!19sChIJ9cdmGJ0lnkcRGCkFrUkb-xE?authuser=0&hl=de&rclk=1,2026-05-15T18:59:32Z,active,success,
0x479e29001af19821:0x7910f1ac29a385f9,Bäckerei Café Rauchensteiner,84028,"Industriestraße 8B, 84030 Ergolding",3.3,12,Bäckerei,48.5662188,12.1698099,,,false,,,,,,,https://www.google.com/maps/place/B%C3%A4ckerei+Caf%C3%A9+Rauchensteiner/data=!4m7!3m6!1s0x479e29001af19821:0x7910f1ac29a385f9!8m2!3d48.5662188!4d12.1698099!16s%2Fg%2F11nc6_ywjw!19sChIJIZjxGgApnkcR-YWjKazxEHk?authuser=0&hl=de&rclk=1,2026-05-15T19:01:13Z,active,success,
0x479e25e7b4935d89:0x9fe1fb79ef23dafe,Bäckerei Frühmorgen,84028,"Rupprechtstraße 20, 84034 Landshut",3.5,90,Bäckerei,48.5439087,12.1352268,,,false,,,,,,,https://www.google.com/maps/place/B%C3%A4ckerei+Fr%C3%BChmorgen/data=!4m7!3m6!1s0x479e25e7b4935d89:0x9fe1fb79ef23dafe!8m2!3d48.5439087!4d12.1352268!16s%2Fg%2F11bzyqj6gb!19sChIJiV2TtOclnkcR_toj73n74Z8?authuser=0&hl=de&rclk=1,2026-05-15T18:58:36Z,active,success,
0x479e259ffab30b17:0x71edc68a5b9b104,Bäckerei Frühmorgen,84028,"Kristallstraße 2, 84032 Altdorf",4.3,139,Bäckerei,48.5460202,12.0947373,,,false,,,,,,,https://www.google.com/maps/place/B%C3%A4ckerei+Fr%C3%BChmorgen/data=!4m7!3m6!1s0x479e259ffab30b17:0x71edc68a5b9b104!8m2!3d48.5460202!4d12.0947373!16s%2Fg%2F1tcwvq75!19sChIJFwuz-p8lnkcRBLG5pWjcHgc?authuser=0&hl=de&rclk=1,2026-05-15T19:01:49Z,active,success,
0x479e25eec64184c7:0x7195c05f74020fe1,Bäckerei Frühmorgen,84028,"Oberndorferstraße 24 a, 84032 Landshut",4.2,68,Bäckerei,48.5475852,12.1299939,,,false,,,,,,,https://www.google.com/maps/place/B%C3%A4ckerei+Fr%C3%BChmorgen/data=!4m7!3m6!1s0x479e25eec64184c7:0x7195c05f74020fe1!8m2!3d48.5475852!4d12.1299939!16s%2Fg%2F11fxvfz0mx!19sChIJx4RBxu4lnkcR4Q8CdF_AlXE?authuser=0&hl=de&rclk=1,2026-05-15T18:58:25Z,active,success,
0x479e26141a0ce77f:0xb5943a4b6b2dd399,Bäckerei Frühmorgen,84028,"Niedermayerstraße 1, 84028 Landshut",4.3,813,Bäckerei,48.5421781,12.1668215,,,false,,,,,,,https://www.google.com/maps/place/B%C3%A4ckerei+Fr%C3%BChmorgen/data=!4m7!3m6!1s0x479e26141a0ce77f:0xb5943a4b6b2dd399!8m2!3d48.5421781!4d12.1668215!16s%2Fg%2F1tn006ck!19sChIJf-cMGhQmnkcRmdMta0s6lLU?authuser=0&hl=de&rclk=1,2026-05-15T18:44:18Z,active,success,
0x479e2671290c45a1:0xfe3af079c3c00b27,Bäckerei Gebel Landshut,84028,"Dreifaltigkeitspl. 10, 84028 Landshut",,,Bäckerei,48.5324,12.14906,,,false,,,,,,,https://www.google.com/maps/place/B%C3%A4ckerei+Gebel+Landshut/data=!4m7!3m6!1s0x479e2671290c45a1:0xfe3af079c3c00b27!8m2!3d48.5324!4d12.14906!16s%2Fg%2F11bzyq9pk4!19sChIJoUUMKXEmnkcRJwvAw3nwOv4?authuser=0&hl=de&rclk=1,2026-05-15T19:01:32Z,permanently_closed,success,
0x479e260b52dc1c73:0xe47b828907c5fa8c,Bäckerei Gebel Landshut,84028,"Zweibrückenstraße 675, 84028 Landshut",4.2,6,Bäckerei,48.5396821,12.1510165,,,false,,,,,,,https://www.google.com/maps/place/B%C3%A4ckerei+Gebel+Landshut/data=!4m7!3m6!1s0x479e260b52dc1c73:0xe47b828907c5fa8c!8m2!3d48.5396821!4d12.1510165!16s%2Fg%2F11fxvsf00d!19sChIJcxzcUgsmnkcRjPrFB4mCe-Q?authuser=0&hl=de&rclk=1,2026-05-15T19:01:21Z,permanently_closed,success,
0x479e2674076a7857:0x26a6c0a40c85dfcc,Bäckerei Gebel Landshut,84028,"Theaterstraße 62, 84028 Landshut",3.7,56,Bäckerei,48.5350922,12.1495948,,,false,,,,,,,https://www.google.com/maps/place/B%C3%A4ckerei+Gebel+Landshut/data=!4m7!3m6!1s0x479e2674076a7857:0x26a6c0a40c85dfcc!8m2!3d48.5350922!4d12.1495948!16s%2Fg%2F11cn5r7cgj!19sChIJV3hqB3QmnkcRzN-FDKTApiY?authuser=0&hl=de&rclk=1,2026-05-15T18:40:02Z,active,success,
0x479e267231f77f89:0x58eab4b78eba3d9,Bäckerei Gebel Landshut,84028,"Schirmgasse 278, 84028 Landshut",4.1,32,Bäckerei,48.5349407,12.1534188,,,false,,,,,,,https://www.google.com/maps/place/B%C3%A4ckerei+Gebel+Landshut/data=!4m7!3m6!1s0x479e267231f77f89:0x58eab4b78eba3d9!8m2!3d48.5349407!4d12.1534188!16s%2Fg%2F1tf56w7p!19sChIJiX_3MXImnkcR2aPreEurjgU?authuser=0&hl=de&rclk=1,2026-05-15T18:57:45Z,active,success,
0x479e262333292a5f:0xe04ff0e909fccb02,Bäckerei Mareis GmbH,84028,"Ritter-von-Schoch-Straße 19, 84036 Landshut",4.2,293,Bäckerei,48.5462065,12.1794454,,,false,,,,,,,https://www.google.com/maps/place/B%C3%A4ckerei+Mareis+GmbH/data=!4m7!3m6!1s0x479e262333292a5f:0xe04ff0e909fccb02!8m2!3d48.5462065!4d12.1794454!16s%2Fg%2F11bzyptdzq!19sChIJXyopMyMmnkcRAsv8CenwT-A?authuser=0&hl=de&rclk=1,2026-05-15T18:56:41Z,active,success,
0x479e25fdc6a8d25b:0x20cbeab6c6766df8,Bäckerei Mareis GmbH,84028,"Siemensstraße 12, 84030 Landshut",4.5,707,Bäckerei,48.5545775,12.1504008,,,false,,,,,,,https://www.google.com/maps/place/B%C3%A4ckerei+Mareis+GmbH/data=!4m7!3m6!1s0x479e25fdc6a8d25b:0x20cbeab6c6766df8!8m2!3d48.5545775!4d12.1504008!16s%2Fg%2F11cjjhl7g3!19sChIJW9Koxv0lnkcR-G12xrbqyyA?authuser=0&hl=de&rclk=1,2026-05-15T18:57:53Z,active,success,
0x479e28b7d977fb93:0x2bea07a26f72a58b,Bäckerei Wackerl,84028,"Lindenstraße 22, 84030 Ergolding",4.7,26,Bäckerei,48.5777231,12.1726106,,,false,,,,,,,https://www.google.com/maps/place/B%C3%A4ckerei+Wackerl/data=!4m7!3m6!1s0x479e28b7d977fb93:0x2bea07a26f72a58b!8m2!3d48.5777231!4d12.1726106!16s%2Fg%2F11cn3w5qtx!19sChIJk_t32bconkcRi6Vyb6IH6is?authuser=0&hl=de&rclk=1,2026-05-15T19:01:57Z,active,success,
0x479e260eabdbe76f:0x9162b889d32594ff,Bäckerei und Konditorei Wackerl e.K.,84028,"Äußere Regensburger Str. 25, 84034 Landshut",4.5,165,Bäckerei,48.5445233,12.1540439,,,false,,,,,,,https://www.google.com/maps/place/B%C3%A4ckerei+und+Konditorei+Wackerl+e.K./data=!4m7!3m6!1s0x479e260eabdbe76f:0x9162b889d32594ff!8m2!3d48.5445233!4d12.1540439!16s%2Fg%2F1vfp75lp!19sChIJb-fbqw4mnkcR_5Ql04m4YpE?authuser=0&hl=de&rclk=1,2026-05-15T18:56:53Z,active,success,
0x479e2672d8cb2a25:0x94bd6900538c27a2,Bäckerei und Konditorei Wackerl e.K.,84028,"Neustadt 504, 84028 Landshut",4.3,49,Bäckerei,48.5353386,12.1541096,,,false,,,,,,,https://www.google.com/maps/place/B%C3%A4ckerei+und+Konditorei+Wackerl+e.K./data=!4m7!3m6!1s0x479e2672d8cb2a25:0x94bd6900538c27a2!8m2!3d48.5353386!4d12.1541096!16s%2Fg%2F1vfn5m_2!19sChIJJSrL2HImnkcRoieMUwBpvZQ?authuser=0&hl=de&rclk=1,2026-05-15T18:57:08Z,active,success,
0x479e26773032bb4d:0xa9c33c2781f457b3,Bäckerei-Konditorei Andreas Beck,84028,"Wittstraße 4, 84036 Landshut",5,26,Bäckerei,48.5325909,12.1482167,,,false,,,,,,,https://www.google.com/maps/place/B%C3%A4ckerei-Konditorei+Andreas+Beck/data=!4m7!3m6!1s0x479e26773032bb4d:0xa9c33c2781f457b3!8m2!3d48.5325909!4d12.1482167!16s%2Fg%2F11d_tns4my!19sChIJTbsyMHcmnkcRs1f0gSc8w6k?authuser=0&hl=de&rclk=1,2026-05-15T18:56:36Z,active,success,
0x479e2758b0de4a7b:0x83b999097dfaa231,Bürgerbiergarten,84028,"Preysingallee 2, 84028 Landshut",2.9,44,Bar / Kneipe,48.533889,12.1467895,,,false,,,,,,,https://www.google.com/maps/place/B%C3%BCrgerbiergarten/data=!4m7!3m6!1s0x479e2758b0de4a7b:0x83b999097dfaa231!8m2!3d48.533889!4d12.1467895!16s%2Fg%2F11kfc8p1tg!19sChIJe0resFgnnkcRMaL6fQmZuYM?authuser=0&hl=de&rclk=1,2026-05-15T19:07:37Z,permanently_closed,success,
0x479e263cdd80c28f:0x522c553fdf126b8a,CAFFE GELATO ITALIANO by Jerry,84028,"Ritter-von-Schoch-Straße 21, 84036 Landshut",4.8,898,Café / Konditorei,48.5457139,12.1785281,,,false,,,,,,,https://www.google.com/maps/place/CAFFE+GELATO+ITALIANO+by+Jerry/data=!4m7!3m6!1s0x479e263cdd80c28f:0x522c553fdf126b8a!8m2!3d48.5457139!4d12.1785281!16s%2Fg%2F12hw7hsn3!19sChIJj8KA3TwmnkcRimsS3z9VLFI?authuser=0&hl=de&rclk=1,2026-05-15T18:42:35Z,active,success,
0x479e27a48120979d:0xde0d5437b8c17270,CHARMANT Landshut,84028,"Ritter-von-Schoch-Straße 19, 84036 Landshut",4.9,172,Friseur / Kosmetik,48.5459285,12.179724,,,true,11,20,15.5,8.27,4.578,11 bis 20 Bewertungen aufgrund von Beschwerden wegen Diffamierung entfernt.,https://www.google.com/maps/place/CHARMANT+Landshut/data=!4m7!3m6!1s0x479e27a48120979d:0xde0d5437b8c17270!8m2!3d48.5459285!4d12.179724!16s%2Fg%2F11j_2fdq9s!19sChIJnZcggaQnnkcRcHLBuDdUDd4?authuser=0&hl=de&rclk=1,2026-05-15T19:19:46Z,active,success,
0x479e27305ad61dbf:0xb5d0cce6fdbe1812,CIN CIN,84028,"Altstadt 96, 84028 Landshut",4.9,60,Bar / Kneipe,48.5388893,12.1520953,,,false,,,,,,,https://www.google.com/maps/place/CIN+CIN/data=!4m7!3m6!1s0x479e27305ad61dbf:0xb5d0cce6fdbe1812!8m2!3d48.5388893!4d12.1520953!16s%2Fg%2F11x84tjn7m!19sChIJvx3WWjAnnkcREhi-_ebM0LU?authuser=0&hl=de&rclk=1,2026-05-15T19:04:37Z,active,success,
0x479e275b79ca3f9b:0xe33a292c9db9f7c8,CLUBHAUS Landshut,84028,"Breslauer Str. 125, 84028 Landshut",5,1,Bar / Kneipe,48.5536894,12.1767648,,,false,,,,,,,https://www.google.com/maps/place/CLUBHAUS+Landshut/data=!4m7!3m6!1s0x479e275b79ca3f9b:0xe33a292c9db9f7c8!8m2!3d48.5536894!4d12.1767648!16s%2Fg%2F11z5rm8g46!19sChIJmz_KeVsnnkcRyPe5nSwpOuM?authuser=0&hl=de&rclk=1,2026-05-15T18:55:04Z,active,success,
0x479e26737bb94841:0x27344ee7bbe4699d,Cafe 113,84028,"Ländgasse 113, 84028 Landshut",4.7,296,Café / Konditorei,48.5374282,12.1514397,,,false,,,,,,,https://www.google.com/maps/place/Cafe+113/data=!4m7!3m6!1s0x479e26737bb94841:0x27344ee7bbe4699d!8m2!3d48.5374282!4d12.1514397!16s%2Fg%2F11dyn_fk8p!19sChIJQUi5e3MmnkcRnWnku-dONCc?authuser=0&hl=de&rclk=1,2026-05-15T18:37:58Z,active,success,
0x479e26728aa90273:0xb410a6663610489,Cafe Kreuzer Konditorei,84028,"Regierungsstraße 564, 84028 Landshut",4.4,170,Café / Konditorei,48.5366089,12.1554492,,,true,2,5,3.5,2.02,4.331,Zwei bis fünf Bewertungen aufgrund von Beschwerden wegen Diffamierung entfernt.,https://www.google.com/maps/place/Cafe+Kreuzer+Konditorei/data=!4m7!3m6!1s0x479e26728aa90273:0xb410a6663610489!8m2!3d48.5366089!4d12.1554492!16s%2Fg%2F1tdx7pwq!19sChIJcwKpinImnkcRiQRhY2YKQQs?authuser=0&hl=de&rclk=1,2026-05-15T18:58:11Z,active,success,
0x479e26736279f4af:0xf0e01113935127a2,Cafe am Isartürl,84028,"Ländgasse 118D, 84028 Landshut",4.6,80,Café / Konditorei,48.5378528,12.1510556,,,false,,,,,,,https://www.google.com/maps/place/Cafe+am+Isart%C3%BCrl/data=!4m7!3m6!1s0x479e26736279f4af:0xf0e01113935127a2!8m2!3d48.5378528!4d12.1510556!16s%2Fg%2F11c59wnj5x!19sChIJr_R5YnMmnkcRoidRkxMR4PA?authuser=0&hl=de&rclk=1,2026-05-15T18:39:02Z,active,success,
0x479e25ec620d02eb:0x368909403295fd73,Café & Weinstube Siebensee,84028,"Siebensee 22, 84034 Landshut",4.7,153,Café / Konditorei,48.5338861,12.1053647,,,false,,,,,,,https://www.google.com/maps/place/Caf%C3%A9+%26+Weinstube+Siebensee/data=!4m7!3m6!1s0x479e25ec620d02eb:0x368909403295fd73!8m2!3d48.5338861!4d12.1053647!16s%2Fg%2F11k583lw7y!19sChIJ6wINYuwlnkcRc_2VMkAJiTY?authuser=0&hl=de&rclk=1,2026-05-15T18:43:03Z,active,success,
0x479e25792c5149c7:0x22ad238228092c6d,Café 73 Balkanlounge,84028,"Luitpoldstraße 73-75, 84034 Landshut",3.8,77,Restaurant,48.5442752,12.1375154,,,false,,,,,,,https://www.google.com/maps/place/Caf%C3%A9+73+Balkanlounge/data=!4m7!3m6!1s0x479e25792c5149c7:0x22ad238228092c6d!8m2!3d48.5442752!4d12.1375154!16s%2Fg%2F11hf27gzhh!19sChIJx0lRLHklnkcRbSwJKIIjrSI?authuser=0&hl=de&rclk=1,2026-05-15T18:46:27Z,temporarily_closed,success,
0x479e26715afaaeaf:0xc70e85fcd0f6e1e6,Café Aran Kronprinz,84028,"Altstadt 29, 84028 Landshut",4.7,519,Café / Konditorei,48.5341667,12.1502778,,,true,51,100,75.5,12.7,4.23,51 bis 100 Bewertungen aufgrund von Beschwerden wegen Diffamierung entfernt.,https://www.google.com/maps/place/Caf%C3%A9+Aran+Kronprinz/data=!4m7!3m6!1s0x479e26715afaaeaf:0xc70e85fcd0f6e1e6!8m2!3d48.5341667!4d12.1502778!16s%2Fg%2F1vlz9bqc!19sChIJr676WnEmnkcR5uH20PyFDsc?authuser=0&hl=de&rclk=1,2026-05-15T18:37:26Z,active,success,
0x479e2673ef2e2ea1:0xcb0828856870a530,Café Belstner,84028,"Altstadt 295, 84028 Landshut",4.1,863,Café / Konditorei,48.5352857,12.1513793,,,false,,,,,,,https://www.google.com/maps/place/Caf%C3%A9+Belstner/data=!4m7!3m6!1s0x479e2673ef2e2ea1:0xcb0828856870a530!8m2!3d48.5352857!4d12.1513793!16s%2Fg%2F1tgdbd83!19sChIJoS4u73MmnkcRMKVwaIUoCMs?authuser=0&hl=de&rclk=1,2026-05-15T18:38:23Z,active,success,
0x479e260cd226610f:0x855937f0e99d918e,Café International,84028,"Orbankai 4, 84028 Landshut",4.4,21,Café / Konditorei,48.5395762,12.1542837,,,false,,,,,,,https://www.google.com/maps/place/Caf%C3%A9+International/data=!4m7!3m6!1s0x479e260cd226610f:0x855937f0e99d918e!8m2!3d48.5395762!4d12.1542837!16s%2Fg%2F11hbnq2w7r!19sChIJD2Em0gwmnkcRjpGd6fA3WYU?authuser=0&hl=de&rclk=1,2026-05-15T18:39:14Z,active,success,
0x479e2673a9ed5025:0x7d300138c821689a,Café Kaffeekultur Ziegler,84028,"Rosengasse 345, 84028 Landshut",4.3,69,Café / Konditorei,48.5367275,12.1532998,,,false,,,,,,,https://www.google.com/maps/place/Caf%C3%A9+Kaffeekultur+Ziegler/data=!4m7!3m6!1s0x479e2673a9ed5025:0x7d300138c821689a!8m2!3d48.5367275!4d12.1532998!16s%2Fg%2F1td1hznz!19sChIJJVDtqXMmnkcRmmghyDgBMH0?authuser=0&hl=de&rclk=1,2026-05-15T18:38:56Z,active,success,
0x479e27001ca3d809:0xea478d1688be6f88,Café und Buch Symposium,84028,"Neustadt 525, 84028 Landshut",4.8,128,Café / Konditorei,48.5369041,12.1546005,,,false,,,,,,,https://www.google.com/maps/place/Caf%C3%A9+und+Buch+Symposium/data=!4m7!3m6!1s0x479e27001ca3d809:0xea478d1688be6f88!8m2!3d48.5369041!4d12.1546005!16s%2Fg%2F11vm1wr2v6!19sChIJCdijHAAnnkcRiG--iBaNR-o?authuser=0&hl=de&rclk=1,2026-05-15T18:37:42Z,active,success,
0x479e27d129f51e4d:0x42142ea01fa2b12d,Call Shop Internet and Asia Bazar,84028,"Altstadt 369, 84028 Landshut",4.4,22,Sonstiges,48.5379565,12.1527444,,,false,,,,,,,https://www.google.com/maps/place/Call+Shop+Internet+and+Asia+Bazar/data=!4m7!3m6!1s0x479e27d129f51e4d:0x42142ea01fa2b12d!8m2!3d48.5379565!4d12.1527444!16s%2Fg%2F11gjp4dkgx!19sChIJTR71KdEnnkcRLbGiH6AuFEI?authuser=0&hl=de&rclk=1,2026-05-15T19:47:16Z,active,success,
0x479e25e17f4ad85f:0xdbea9b312a329d73,Call a Pizza Landshut,84028,"Seligenthaler Str. 48, 84034 Landshut",4.4,173,Pizzeria,48.5450775,12.1438004,,,true,21,50,35.5,17.03,3.821,21 bis 50 Bewertungen aufgrund von Beschwerden wegen Diffamierung entfernt.,https://www.google.com/maps/place/Call+a+Pizza+Landshut/data=!4m7!3m6!1s0x479e25e17f4ad85f:0xdbea9b312a329d73!8m2!3d48.5450775!4d12.1438004!16s%2Fg%2F1ptz0rrj5!19sChIJX9hKf-ElnkcRc50yKjGb6ts?authuser=0&hl=de&rclk=1,2026-05-15T18:54:12Z,active,success,
0x41096619f8e7c8ed:0xa6383a3f6449c3a8,Cantina Ensenada Landshut,84028,"Neustadt 500, 84028 Landshut",4.3,477,Restaurant,48.5349362,12.1540882,,,false,,,,,,,https://www.google.com/maps/place/Cantina+Ensenada+Landshut/data=!4m7!3m6!1s0x41096619f8e7c8ed:0xa6383a3f6449c3a8!8m2!3d48.5349362!4d12.1540882!16s%2Fg%2F11b75n3hsz!19sChIJ7cjn-BlmCUERqMNJZD86OKY?authuser=0&hl=de&rclk=1,2026-05-15T18:46:11Z,active,success,
0x479e268c0cc6c619:0x9b6ef6cc099c9e81,Capriccio Italiano,84028,"Veldener Str. 116, 84036 Landshut",4.9,101,Pizzeria,48.5133881,12.1552939,,,false,,,,,,,https://www.google.com/maps/place/Capriccio+Italiano/data=!4m7!3m6!1s0x479e268c0cc6c619:0x9b6ef6cc099c9e81!8m2!3d48.5133881!4d12.1552939!16s%2Fg%2F11d_cyr39k!19sChIJGcbGDIwmnkcRgZ6cCcz2bps?authuser=0&hl=de&rclk=1,2026-05-15T18:53:21Z,active,success,
0x479e2784d3b4b759:0xa5619879c7d49f04,Casa Sicilia,84028,"Altstadt 74, 84028 Landshut",4.8,252,Restaurant,48.5357024,12.1506164,,,true,6,10,8,3.08,4.683,Sechs bis zehn Bewertungen aufgrund von Beschwerden wegen Diffamierung entfernt.,https://www.google.com/maps/place/Casa+Sicilia/data=!4m7!3m6!1s0x479e2784d3b4b759:0xa5619879c7d49f04!8m2!3d48.5357024!4d12.1506164!16s%2Fg%2F11thqnf9l8!19sChIJWbe004QnnkcRBJ_Ux3mYYaU?authuser=0&hl=de&rclk=1,2026-05-15T16:35:58Z,active,success,
0x479e2672324a9747:0x238788b042142055,Casa del oliva,84028,"Schirmgasse 279, 84028 Landshut",4.6,100,Restaurant,48.5350793,12.1532616,,,false,,,,,,,https://www.google.com/maps/place/Casa+del+oliva/data=!4m7!3m6!1s0x479e2672324a9747:0x238788b042142055!8m2!3d48.5350793!4d12.1532616!16s%2Fg%2F1tp26825!19sChIJR5dKMnImnkcRVSAUQrCIhyM?authuser=0&hl=de&rclk=1,2026-05-15T18:40:33Z,active,success,
0x479e27393458855d:0x8c69a8933a2cd1d,Cataleya 2.0 Tapas Bar & Lounge,84028,"Ländgasse 132, 84036 Landshut",4.8,46,Restaurant,48.5358298,12.1503525,,,false,,,,,,,https://www.google.com/maps/place/Cataleya+2.0+Tapas+Bar+%26+Lounge/data=!4m7!3m6!1s0x479e27393458855d:0x8c69a8933a2cd1d!8m2!3d48.5358298!4d12.1503525!16s%2Fg%2F11tcjtmdl8!19sChIJXYVYNDknnkcRHc2iM4maxgg?authuser=0&hl=de&rclk=1,2026-05-15T18:39:51Z,active,success,
0x479e25e09f553455:0x21466dc19f9d82e2,Chang Noi Thaimassage,84028,"Grasgasse 317, 84028 Landshut",4.7,53,Friseur / Kosmetik,48.5361187,12.1527879,,,false,,,,,,,https://www.google.com/maps/place/Chang+Noi+Thaimassage/data=!4m7!3m6!1s0x479e25e09f553455:0x21466dc19f9d82e2!8m2!3d48.5361187!4d12.1527879!16s%2Fg%2F1pty39ccx!19sChIJVTRVn-AlnkcR4oKdn8FtRiE?authuser=0&hl=de&rclk=1,2026-05-15T19:41:39Z,active,success,
0x479e260b3f9d88a9:0x671c995f91845892,China Thai Vietnam,84028,"Zweibrückenstraße 696, 84028 Landshut",4.1,40,Asiatisch,48.540754,12.1504159,,,false,,,,,,,https://www.google.com/maps/place/China+Thai+Vietnam/data=!4m7!3m6!1s0x479e260b3f9d88a9:0x671c995f91845892!8m2!3d48.540754!4d12.1504159!16s%2Fg%2F1hc1t7_6m!19sChIJqYidPwsmnkcRkliEkV-ZHGc?authuser=0&hl=de&rclk=1,2026-05-15T18:51:21Z,active,success,
0x479e2673e0700a87:0x25d9cc7e4819ff82,Chocolat,84028,"Altstadt 254, 84028 Landshut",4.3,1028,Restaurant,48.5346835,12.1509503,,,false,,,,,,,https://www.google.com/maps/place/Chocolat/data=!4m7!3m6!1s0x479e2673e0700a87:0x25d9cc7e4819ff82!8m2!3d48.5346835!4d12.1509503!16s%2Fg%2F1tdr28yl!19sChIJhwpw4HMmnkcRgv8ZSH7M2SU?authuser=0&hl=de&rclk=1,2026-05-15T18:38:06Z,active,success,
0x479e25e666c85b5f:0xd4b7a81d1df8d7cb,Christina Bassal,84028,"Herzog-Albrecht-Straße 23, 84034 Landshut",,0,Friseur / Kosmetik,48.5451835,12.1367135,,,false,,,,,,,https://www.google.com/maps/place/Christina+Bassal/data=!4m7!3m6!1s0x479e25e666c85b5f:0xd4b7a81d1df8d7cb!8m2!3d48.5451835!4d12.1367135!16s%2Fg%2F11cs40rbv5!19sChIJX1vIZuYlnkcRy9f4HR2ot9Q?authuser=0&hl=de&rclk=1,2026-05-15T19:34:03Z,no_public_reviews,success,
0x479e260d36c5678d:0x3236865df1dcbb34,City Center Landshut,84028,"Am Alten Viehmarkt 5, 84028 Landshut",4.2,4535,Sonstiges,48.5392589,12.1563711,,,false,,,,,,,https://www.google.com/maps/place/City+Center+Landshut/data=!4m7!3m6!1s0x479e260d36c5678d:0x3236865df1dcbb34!8m2!3d48.5392589!4d12.1563711!16s%2Fg%2F121vqwr3!19sChIJjWfFNg0mnkcRNLvc8V2GNjI?authuser=0&hl=de&rclk=1,2026-05-15T19:44:59Z,active,success,
0x479e2675b662bf39:0xb6f93b2a7b9333b5,City Hotel ISAR-RESIDENZ,84028,"Papiererstraße 6, 84034 Landshut",4.7,508,Hotel,48.5366635,12.1468816,,,false,,,,,,,https://www.google.com/maps/place/City+Hotel+ISAR-RESIDENZ/data=!4m10!3m9!1s0x479e2675b662bf39:0xb6f93b2a7b9333b5!5m2!4m1!1i2!8m2!3d48.5366635!4d12.1468816!16s%2Fg%2F1tdgnttp!19sChIJOb9itnUmnkcRtTOTeyo7-bY?authuser=0&hl=de&rclk=1,2026-05-15T19:16:30Z,active,success,
0x479e260caa8ab987:0x983af2fd1b46dae7,Classic Thai Massage Inh. : Kassiri Butwong ; Michael Neumann,84028,"Isargestade 729, 84028 Landshut",4.8,94,Friseur / Kosmetik,48.539719,12.1517523,,,false,,,,,,,https://www.google.com/maps/place/Classic+Thai+Massage+Inh.+:+Kassiri+Butwong+;+Michael+Neumann/data=!4m7!3m6!1s0x479e260caa8ab987:0x983af2fd1b46dae7!8m2!3d48.539719!4d12.1517523!16s%2Fg%2F11b70l6k70!19sChIJh7mKqgwmnkcR59pGG_3yOpg?authuser=0&hl=de&rclk=1,2026-05-15T19:42:07Z,active,success,
0x6b84a290055cc4d:0xe8c0bc67feff5bd9,Coach Fabian,84028,,5,11,Sonstiges,48.5445495,12.1937072,,,false,,,,,,,https://www.google.com/maps/place/Coach+Fabian/data=!4m7!3m6!1s0x6b84a290055cc4d:0xe8c0bc67feff5bd9!8m2!3d48.5445495!4d12.1937072!16s%2Fg%2F11vr6qwsj8!19sChIJTcxVAClKuAYR2Vv__me8wOg?authuser=0&hl=de&rclk=1,2026-05-15T19:42:36Z,active,success,
0x479e27fa261faa55:0x1af7979f42e492eb,Coach2pro - Athletik- & Mentaltraining für Fußballtalente | Spielstark in 6-12 Wochen | Landshut & München,84028,"Am Schmiedlacker 22C, 84028 Landshut",5,12,Sonstiges,48.5415264,12.1787205,,,false,,,,,,,https://www.google.com/maps/place/Coach2pro+-+Athletik-+%26+Mentaltraining+f%C3%BCr+Fu%C3%9Fballtalente+%7C+Spielstark+in+6-12+Wochen+%7C+Landshut+%26+M%C3%BCnchen/data=!4m7!3m6!1s0x479e27fa261faa55:0x1af7979f42e492eb!8m2!3d48.5415264!4d12.1787205!16s%2Fg%2F11l24b2r1f!19sChIJVaofJvonnkcR65LkQp-X9xo?authuser=0&hl=de&rclk=1,2026-05-15T19:39:16Z,active,success,
0x479e274c4d9c334f:0x68aaf279fac74d3c,CocooN´s hair by Natalija Vidovic,84028,"CocooN's hair, Herrngasse 384, 84028 Landshut",5,58,Friseur / Kosmetik,48.5382068,12.1534134,,,false,,,,,,,https://www.google.com/maps/place/CocooN%C2%B4s+hair+by+Natalija+Vidovic/data=!4m7!3m6!1s0x479e274c4d9c334f:0x68aaf279fac74d3c!8m2!3d48.5382068!4d12.1534134!16s%2Fg%2F11rsslhsvd!19sChIJTzOcTUwnnkcRPE3H-nnyqmg?authuser=0&hl=de&rclk=1,2026-05-15T19:22:36Z,active,success,
0x479e267588e61399:0x9058dd5cf230c7bf,Coiffeur Hofstetter,84028,"Luitpoldstraße 17A, 84034 Landshut",4.9,92,Friseur / Kosmetik,48.5371309,12.1438247,,,true,2,5,3.5,3.66,4.757,Zwei bis fünf Bewertungen aufgrund von Beschwerden wegen Diffamierung entfernt.,https://www.google.com/maps/place/Coiffeur+Hofstetter/data=!4m7!3m6!1s0x479e267588e61399:0x9058dd5cf230c7bf!8m2!3d48.5371309!4d12.1438247!16s%2Fg%2F1tdmzh4r!19sChIJmRPmiHUmnkcRv8cw8lzdWJA?authuser=0&hl=de&rclk=1,2026-05-15T19:22:26Z,active,success,
0x479e27002af1a0f9:0xf9abf4caca1a4c27,Coopers Landshut,84028,"Neustadt 524, 84028 Landshut",4.7,78,Café / Konditorei,48.5368731,12.154457,,,false,,,,,,,https://www.google.com/maps/place/Coopers+Landshut/data=!4m7!3m6!1s0x479e27002af1a0f9:0xf9abf4caca1a4c27!8m2!3d48.5368731!4d12.154457!16s%2Fg%2F11zjqzh_xr!19sChIJ-aDxKgAnnkcRJ0waysr0q_k?authuser=0&hl=de&rclk=1,2026-05-15T18:36:55Z,active,success,
0x479e28aa55daa567:0x2cd227e2e5d04e73,CrossFit Landshut,84028,"Industriestraße 20B, 84030 Ergolding",5,28,Fitness / Sport,48.5614911,12.1586298,,,false,,,,,,,https://www.google.com/maps/place/CrossFit+Landshut/data=!4m7!3m6!1s0x479e28aa55daa567:0x2cd227e2e5d04e73!8m2!3d48.5614911!4d12.1586298!16s%2Fg%2F11bc710zqd!19sChIJZ6XaVaoonkcRc07Q5eIn0iw?authuser=0&hl=de&rclk=1,2026-05-15T19:37:30Z,active,success,
0x479e2708100dbe31:0xf9ef87a37049b3e1,D'Grill Partyservice und Grill-Catering,84028,,5,29,Imbiss,48.5445107,12.15152,,,false,,,,,,,https://www.google.com/maps/place/D%27Grill+Partyservice+und+Grill-Catering/data=!4m7!3m6!1s0x479e2708100dbe31:0xf9ef87a37049b3e1!8m2!3d48.5445107!4d12.15152!16s%2Fg%2F11q1rk79p1!19sChIJMb4NEAgnnkcR4bNJcKOH7_k?authuser=0&hl=de&rclk=1,2026-05-15T19:51:00Z,active,success,
0x479e25080f630e13:0x1bda40178fe6e4ca,DA ARMANDO PIZZA - Erste neapolitanische Pizza in Landshut,84028,"Waldkirchener Str. 4, 84030 Landshut",4.9,207,Pizzeria,48.5598401,12.1381677,,,false,,,,,,,https://www.google.com/maps/place/DA+ARMANDO+PIZZA+-+Erste+neapolitanische+Pizza+in+Landshut/data=!4m7!3m6!1s0x479e25080f630e13:0x1bda40178fe6e4ca!8m2!3d48.5598401!4d12.1381677!16s%2Fg%2F11qbj4ddsd!19sChIJEw5jDwglnkcRyuTmjxdA2hs?authuser=0&hl=de&rclk=1,2026-05-15T18:53:35Z,active,success,
0x222debfb23662285:0x35fbb2db42be0add,DJ Dan Forster,84028,"Altstadt, 84028 Landshut",5,12,Sonstiges,48.5358077,12.1519506,,,false,,,,,,,https://www.google.com/maps/place/DJ+Dan+Forster/data=!4m7!3m6!1s0x222debfb23662285:0x35fbb2db42be0add!8m2!3d48.5358077!4d12.1519506!16s%2Fg%2F11s3wtrtsl!19sChIJhSJmI_vrLSIR3Qq-Qtuy-zU?authuser=0&hl=de&rclk=1,2026-05-15T19:14:56Z,active,success,
0x479e267381ac2835:0x28c608ed71257ae3,DJK SB Landshut,84028,"Ländgasse 122a, 84028 Landshut",,0,Verein,48.53698,12.15074,,,false,,,,,,,https://www.google.com/maps/place/DJK+SB+Landshut/data=!4m7!3m6!1s0x479e267381ac2835:0x28c608ed71257ae3!8m2!3d48.53698!4d12.15074!16s%2Fg%2F11rsbgjlgk!19sChIJNSisgXMmnkcR43olce0Ixig?authuser=0&hl=de&rclk=1,2026-05-15T19:15:13Z,no_public_reviews,success,
0x479e267573dcbc99:0xdd41cb489788c720,DJK Sportbund Landshut Tischtennis,84028,"Turnhalle, Nikolastraße 2, 84034 Landshut",4.6,24,Verein,48.5408296,12.1452975,,,false,,,,,,,https://www.google.com/maps/place/DJK+Sportbund+Landshut+Tischtennis/data=!4m7!3m6!1s0x479e267573dcbc99:0xdd41cb489788c720!8m2!3d48.5408296!4d12.1452975!16s%2Fg%2F1hc36rcgn!19sChIJmbzcc3UmnkcRIMeIl0jLQd0?authuser=0&hl=de&rclk=1,2026-05-15T19:14:32Z,active,success,
0x479e27fac5d646cb:0xb38cbf434bf7a572,Damaskus Döner,84028,"Innere Regensburger Str, Bismarckpl. 1a, 84034 Landshut",4.7,27,Döner / Kebab,48.5413464,12.1499941,,,false,,,,,,,https://www.google.com/maps/place/Damaskus+D%C3%B6ner/data=!4m7!3m6!1s0x479e27fac5d646cb:0xb38cbf434bf7a572!8m2!3d48.5413464!4d12.1499941!16s%2Fg%2F11k9fcytkt!19sChIJy0bWxfonnkcRcqX3S0O_jLM?authuser=0&hl=de&rclk=1,2026-05-15T19:02:09Z,active,success,
0x479e25fe06f6b6bb:0xc3429dcaa89f7e58,Dance & Fitness Academy,84028,"Porschestraße 21, 84030 Landshut",5,3,Schule / Bildung,48.5542383,12.1552558,,,false,,,,,,,https://www.google.com/maps/place/Dance+%26+Fitness+Academy/data=!4m7!3m6!1s0x479e25fe06f6b6bb:0xc3429dcaa89f7e58!8m2!3d48.5542383!4d12.1552558!16s%2Fg%2F11d_8t6zcm!19sChIJu7b2Bv4lnkcRWH6fqMqdQsM?authuser=0&hl=de&rclk=1,2026-05-15T19:38:14Z,active,success,
0x479e270b4aecd869:0xac8e0914cbd53117,De Las Mercedes Hairspa,84028,"Schirmgasse 273, 84028 Landshut",4.9,61,Friseur / Kosmetik,48.5349283,12.1527903,,,false,,,,,,,https://www.google.com/maps/place/De+Las+Mercedes+Hairspa/data=!4m7!3m6!1s0x479e270b4aecd869:0xac8e0914cbd53117!8m2!3d48.5349283!4d12.1527903!16s%2Fg%2F11rd9g3ncz!19sChIJadjsSgsnnkcRFzHVyxQJjqw?authuser=0&hl=de&rclk=1,2026-05-15T19:21:39Z,active,success,
0x479e27856cdcbad3:0x990add61047b623f,Dejavu Lounge,84028,"Steckengasse 306, 84028 Landshut",4.1,181,Restaurant,48.5355598,12.153078,,,false,,,,,,,https://www.google.com/maps/place/Dejavu+Lounge/data=!4m7!3m6!1s0x479e27856cdcbad3:0x990add61047b623f!8m2!3d48.5355598!4d12.153078!16s%2Fg%2F11tsh8rn9d!19sChIJ07rcbIUnnkcRP2J7BGHdCpk?authuser=0&hl=de&rclk=1,2026-05-15T18:54:45Z,active,success,
0xaaa00ceb8a07e4fb:0x9c83cb1208e85ec6,Deliver Heroes Landshut | Supermarkt Lebensmittel Lieferdienst,84028,,5,4,Imbiss,48.5513216,12.1514194,,,false,,,,,,,https://www.google.com/maps/place/Deliver+Heroes+Landshut+%7C+Supermarkt+Lebensmittel+Lieferdienst/data=!4m7!3m6!1s0xaaa00ceb8a07e4fb:0x9c83cb1208e85ec6!8m2!3d48.5513216!4d12.1514194!16s%2Fg%2F11k56t8rz4!19sChIJ--QHiusMoKoRxl7oCBLLg5w?authuser=0&hl=de&rclk=1,2026-05-15T19:48:06Z,active,success,
0x479e260b520afb31:0x9ba18bfa6dea458,Der Hundesalon Landshut,84028,"Zweibrückenstraße 723, 84028 Landshut",4.7,65,Friseur / Kosmetik,48.5399398,12.1511122,,,false,,,,,,,https://www.google.com/maps/place/Der+Hundesalon+Landshut/data=!4m7!3m6!1s0x479e260b520afb31:0x9ba18bfa6dea458!8m2!3d48.5399398!4d12.1511122!16s%2Fg%2F113kd65c_!19sChIJMfsKUgsmnkcRWKTepr8Yugk?authuser=0&hl=de&rclk=1,2026-05-15T19:29:28Z,active,success,
0x479e25e8009144e7:0x787bd788c700427d,Der Pizza Service Landshut,84028,"Rupprechtstraße 30, 84034 Landshut",2.6,182,Pizzeria,48.5417658,12.1321682,,,false,,,,,,,https://www.google.com/maps/place/Der+Pizza+Service+Landshut/data=!4m7!3m6!1s0x479e25e8009144e7:0x787bd788c700427d!8m2!3d48.5417658!4d12.1321682!16s%2Fg%2F1hc4tq709!19sChIJ50SRAOglnkcRfUIAx4jXe3g?authuser=0&hl=de&rclk=1,2026-05-15T18:51:50Z,active,success,
0x479e25e1ed995969:0xa2f52cd20cf64a82,Derviş Baba Döner Laden & Bar,84028,"Seligenthaler Str. 32A, 84034 Landshut",4.4,158,Restaurant,48.5448391,12.1457339,,,false,,,,,,,https://www.google.com/maps/place/Dervi%C5%9F+Baba+D%C3%B6ner+Laden+%26+Bar/data=!4m7!3m6!1s0x479e25e1ed995969:0xa2f52cd20cf64a82!8m2!3d48.5448391!4d12.1457339!16s%2Fg%2F11t5x8l0bv!19sChIJaVmZ7eElnkcRgkr2DNIs9aI?authuser=0&hl=de&rclk=1,2026-05-15T18:49:32Z,active,success,
0x4109665c72443357:0xbbe9d57e90ec70f3,Die Barbiere,84028,"Landshuter Str. 39, 84032 Altdorf",4.8,133,Friseur / Kosmetik,48.5550117,12.1164908,,,false,,,,,,,https://www.google.com/maps/place/Die+Barbiere/data=!4m7!3m6!1s0x4109665c72443357:0xbbe9d57e90ec70f3!8m2!3d48.5550117!4d12.1164908!16s%2Fg%2F11dfpf5nw4!19sChIJVzNEclxmCUER83DskH7V6bs?authuser=0&hl=de&rclk=1,2026-05-15T19:33:46Z,active,success,
0x479e260779b1038d:0x654d11af9e268af,Disa Supermarkt GmbH,84028,"Ottostraße 20A, 84030 Landshut",3.9,416,Lebensmittel,48.55248,12.15119,,,false,,,,,,,https://www.google.com/maps/place/Disa+Supermarkt+GmbH/data=!4m7!3m6!1s0x479e260779b1038d:0x654d11af9e268af!8m2!3d48.55248!4d12.15119!16s%2Fg%2F11cjjhf2fg!19sChIJjQOxeQcmnkcRr2ji-RrRVAY?authuser=0&hl=de&rclk=1,2026-05-15T19:44:25Z,active,success,
0x479e267229eadae9:0x23648df704c858be,Donna Pina Vino Bruschetta & Piadina,84028,"Kirchgasse 233, 84028 Landshut",4.5,76,Restaurant,48.5343275,12.1532676,,,false,,,,,,,https://www.google.com/maps/place/Donna+Pina+Vino+Bruschetta+%26+Piadina/data=!4m7!3m6!1s0x479e267229eadae9:0x23648df704c858be!8m2!3d48.5343275!4d12.1532676!16s%2Fg%2F1thsdxmh!19sChIJ6drqKXImnkcRvljIBPeNZCM?authuser=0&hl=de&rclk=1,2026-05-15T18:44:00Z,active,success,
0x479e2679c8aa892f:0x650c70ea658fca10,Dorothea Boerboom Friseursalon,84028,"Innere Münchener Str. 32, 84036 Landshut",5,13,Friseur / Kosmetik,48.5292549,12.144696,,,false,,,,,,,https://www.google.com/maps/place/Dorothea+Boerboom+Friseursalon/data=!4m7!3m6!1s0x479e2679c8aa892f:0x650c70ea658fca10!8m2!3d48.5292549!4d12.144696!16s%2Fg%2F1td5_qfy!19sChIJL4mqyHkmnkcREMqPZepwDGU?authuser=0&hl=de&rclk=1,2026-05-15T19:25:57Z,active,success,
0x479e2673fc90e879:0x451e964e4d768e67,Douglas Landshut,84028,"Theaterstraße 55-57, 84028 Landshut",4.1,237,Sonstiges,48.53489,12.1503,,,false,,,,,,,https://www.google.com/maps/place/Douglas+Landshut/data=!4m7!3m6!1s0x479e2673fc90e879:0x451e964e4d768e67!8m2!3d48.53489!4d12.1503!16s%2Fg%2F1tkjk5ft!19sChIJeeiQ_HMmnkcRZ452TU6WHkU?authuser=0&hl=de&rclk=1,2026-05-15T19:35:40Z,active,success,
0x479e276b57819143:0x1e09a61558ae1237,Dreadhexe Landshut,84028,"Altstadt 195 b, 84028 Landshut",5,7,Sonstiges,48.5333377,12.1511208,,,false,,,,,,,https://www.google.com/maps/place/Dreadhexe+Landshut/data=!4m7!3m6!1s0x479e276b57819143:0x1e09a61558ae1237!8m2!3d48.5333377!4d12.1511208!16s%2Fg%2F11yj7y1n28!19sChIJQ5GBV2snnkcRNxKuWBWmCR4?authuser=0&hl=de&rclk=1,2026-05-15T19:29:56Z,active,success,
0x479e2673a799c6dd:0x8826b2dbf09553a,Drogerie u. Schreibware,84028,"Altstadt 340, 84028 Landshut",,0,Sonstiges,48.5368929,12.1526175,,,false,,,,,,,https://www.google.com/maps/place/Drogerie+u.+Schreibware/data=!4m7!3m6!1s0x479e2673a799c6dd:0x8826b2dbf09553a!8m2!3d48.5368929!4d12.1526175!16s%2Fg%2F11b6dqm0ps!19sChIJ3caZp3MmnkcROlUJvy1rggg?authuser=0&hl=de&rclk=1,2026-05-15T19:54:08Z,no_public_reviews,success,
0x479e260cbbc9a6ad:0x96af88cbea7278a0,DruckerPatronenTankstelle,84028,"Isargestade 738, 84028 Landshut",4.5,95,Sonstiges,48.540254,12.1530561,,,false,,,,,,,https://www.google.com/maps/place/DruckerPatronenTankstelle/data=!4m7!3m6!1s0x479e260cbbc9a6ad:0x96af88cbea7278a0!8m2!3d48.540254!4d12.1530561!16s%2Fg%2F12hkbxk7f!19sChIJrabJuwwmnkcRoHhy6suIr5Y?authuser=0&hl=de&rclk=1,2026-05-15T19:56:05Z,active,success,
0x479e27007f36a625:0xaa362bd099c84300,Döner Kebab,84028,"Herzog-Georg-Platz, 84028 Landshut",,,Lebensmittel,48.543361,12.1714822,,,false,,,,,,,https://www.google.com/maps/place/D%C3%B6ner+Kebab/data=!4m7!3m6!1s0x479e27007f36a625:0xaa362bd099c84300!8m2!3d48.543361!4d12.1714822!16s%2Fg%2F11nc49025t!19sChIJJaY2fwAnnkcRAEPImdArNqo?authuser=0&hl=de&rclk=1,2026-05-15T19:50:14Z,active,success,
0x479e2673f8b7f947:0x2948920bbf01060f,Döner am Landtor,84028,"Theaterstraße 61, 84028 Landshut",4.6,170,Döner / Kebab,48.5350348,12.1496964,,,false,,,,,,,https://www.google.com/maps/place/D%C3%B6ner+am+Landtor/data=!4m7!3m6!1s0x479e2673f8b7f947:0x2948920bbf01060f!8m2!3d48.5350348!4d12.1496964!16s%2Fg%2F11b66l1wzl!19sChIJR_m3-HMmnkcRDwYBvwuSSCk?authuser=0&hl=de&rclk=1,2026-05-15T18:47:00Z,active,success,
0x479e25f6f792b255:0x1043af860cbb4934,EDEKA,84028,"Goethestraße 80, 84032 Landshut",4.1,386,Lebensmittel,48.5589138,12.135481,,,true,11,20,15.5,3.86,3.98,11 bis 20 Bewertungen aufgrund von Beschwerden wegen Diffamierung entfernt.,https://www.google.com/maps/place/EDEKA/data=!4m7!3m6!1s0x479e25f6f792b255:0x1043af860cbb4934!8m2!3d48.5589138!4d12.135481!16s%2Fg%2F1tcvn7_2!19sChIJVbKS9_YlnkcRNEm7DIavQxA?authuser=0&hl=de&rclk=1,2026-05-15T19:44:19Z,active,success,
0x479e2f80928370e3:0x64d4c1f994e58471,EDEKA Huber,84028,"Am Aicher Feld 12, 84032 Altdorf",4.3,487,Lebensmittel,48.5664857,12.0991687,,,false,,,,,,,https://www.google.com/maps/place/EDEKA+Huber/data=!4m7!3m6!1s0x479e2f80928370e3:0x64d4c1f994e58471!8m2!3d48.5664857!4d12.0991687!16s%2Fg%2F11cjk3v46s!19sChIJ43CDkoAvnkcRcYTllPnB1GQ?authuser=0&hl=de&rclk=1,2026-05-15T19:46:17Z,active,success,
0x479e2888df056e45:0xa40f6fdc0c699c6a,EDEKA Hübl,84028,"Neißestraße 2, 84036 Landshut",4.3,96,Lebensmittel,48.566692,12.2053129,,,false,,,,,,,https://www.google.com/maps/place/EDEKA+H%C3%BCbl/data=!4m7!3m6!1s0x479e2888df056e45:0xa40f6fdc0c699c6a!8m2!3d48.566692!4d12.2053129!16s%2Fg%2F1ts2z7zq!19sChIJRW4F34gonkcRapxpDNxvD6Q?authuser=0&hl=de&rclk=1,2026-05-15T19:45:17Z,active,success,
0x479e26139bc79107:0xe4c6398506b76387,EDEKA Leeb,84028,"Niedermayerstraße 4, 84028 Landshut",4.2,243,Lebensmittel,48.5410639,12.1646161,,,false,,,,,,,https://www.google.com/maps/place/EDEKA+Leeb/data=!4m7!3m6!1s0x479e26139bc79107:0xe4c6398506b76387!8m2!3d48.5410639!4d12.1646161!16s%2Fg%2F11cn17y22p!19sChIJB5HHmxMmnkcRh2O3BoU5xuQ?authuser=0&hl=de&rclk=1,2026-05-15T19:43:01Z,active,success,
0x479e260c0faa1713:0x57a8ebb00224c80c,EDEKA Leeb,84028,"Podewilsstraße 14, 84034 Landshut",4.2,899,Lebensmittel,48.5439101,12.1556665,,,true,6,10,8,0.88,4.172,Sechs bis zehn Bewertungen aufgrund von Beschwerden wegen Diffamierung entfernt.,https://www.google.com/maps/place/EDEKA+Leeb/data=!4m7!3m6!1s0x479e260c0faa1713:0x57a8ebb00224c80c!8m2!3d48.5439101!4d12.1556665!16s%2Fg%2F11bw4r80b5!19sChIJExeqDwwmnkcRDMgkArDrqFc?authuser=0&hl=de&rclk=1,2026-05-15T19:43:40Z,active,success,
0x479e254a85408945:0x910032413fce21e1,ESSO,84028,"Ludwig-Erhard-Straße 14, 84034 Landshut",4.5,102,Sonstiges,48.539907,12.103705,,,false,,,,,,,https://www.google.com/maps/place/ESSO/data=!4m7!3m6!1s0x479e254a85408945:0x910032413fce21e1!8m2!3d48.539907!4d12.103705!16s%2Fg%2F11rmng6sd3!19sChIJRYlAhUolnkcR4SHOP0EyAJE?authuser=0&hl=de&rclk=1,2026-05-15T19:55:46Z,active,success,
0x479e272cfce38429:0x241bcc56860b6a1e,Eat-Italy-Landshut,84028,"Kapuzinerweg 1, 84028 Landshut",4.5,340,Restaurant,48.5389583,12.1558135,,,false,,,,,,,https://www.google.com/maps/place/Eat-Italy-Landshut/data=!4m7!3m6!1s0x479e272cfce38429:0x241bcc56860b6a1e!8m2!3d48.5389583!4d12.1558135!16s%2Fg%2F11spkh3dst!19sChIJKYTj_CwnnkcRHmoLhlbMGyQ?authuser=0&hl=de&rclk=1,2026-05-15T18:45:07Z,active,success,
0x479e260e9c194a7b:0x11c48f8b5697f08b,Ein Laden,84028,"Podewilsstraße 14, 84034 Landshut",3.3,32,Bäckerei,48.5439378,12.1551044,,,false,,,,,,,https://www.google.com/maps/place/Ein+Laden/data=!4m7!3m6!1s0x479e260e9c194a7b:0x11c48f8b5697f08b!8m2!3d48.5439378!4d12.1551044!16s%2Fg%2F1w6r77xt!19sChIJe0oZnA4mnkcRi_CXVouPxBE?authuser=0&hl=de&rclk=1,2026-05-15T18:58:53Z,active,success,
0x479e26739319ca57:0x80327bb2c67a31f3,Eis Panciera GmbH,84028,"Altstadt 78, 84028 Landshut",4.4,588,Café / Konditorei,48.53589,12.15113,,,false,,,,,,,https://www.google.com/maps/place/Eis+Panciera+GmbH/data=!4m7!3m6!1s0x479e26739319ca57:0x80327bb2c67a31f3!8m2!3d48.53589!4d12.15113!16s%2Fg%2F1tqck647!19sChIJV8oZk3MmnkcR8zF6xrJ7MoA?authuser=0&hl=de&rclk=1,2026-05-15T18:42:23Z,active,success,
0x479e26715a2864c1:0xcebba791197775fb,Eiscafé Dolomiti,84028,"Altstadt 31, 84028 Landshut",4.5,267,Café / Konditorei,48.5343079,12.1503348,,,false,,,,,,,https://www.google.com/maps/place/Eiscaf%C3%A9+Dolomiti/data=!4m7!3m6!1s0x479e26715a2864c1:0xcebba791197775fb!8m2!3d48.5343079!4d12.1503348!16s%2Fg%2F1q662454d!19sChIJwWQoWnEmnkcR-3V3GZGnu84?authuser=0&hl=de&rclk=1,2026-05-15T18:45:34Z,active,success,
0x479e267125567b67:0x85cabfd564a01150,Eiscafé Florenz,84028,"Dreifaltigkeitspl. 15, 84028 Landshut",4.5,346,Café / Konditorei,48.532819,12.149517,,,false,,,,,,,https://www.google.com/maps/place/Eiscaf%C3%A9+Florenz/data=!4m7!3m6!1s0x479e267125567b67:0x85cabfd564a01150!8m2!3d48.532819!4d12.149517!16s%2Fg%2F11c55rl5mm!19sChIJZ3tWJXEmnkcRUBGgZNW_yoU?authuser=0&hl=de&rclk=1,2026-05-15T18:41:00Z,active,success,
0x410966142ba54269:0x2c0312aed38404ee,El Cubanito,84028,"Steckengasse 306, 84028 Landshut",4.3,134,Bar / Kneipe,48.5355598,12.153078,,,false,,,,,,,https://www.google.com/maps/place/El+Cubanito/data=!4m7!3m6!1s0x410966142ba54269:0x2c0312aed38404ee!8m2!3d48.5355598!4d12.153078!16s%2Fg%2F11b6dcx2ks!19sChIJaUKlKxRmCUER7gSE064SAyw?authuser=0&hl=de&rclk=1,2026-05-15T19:04:42Z,active,success,
0x479e26390b3f76ad:0x9a670adae3ae6d95,Elaine Braeuning Personal Trainer,84028,"Am Mitterfeld 1, 84028 Landshut",5,17,Sonstiges,48.5399918,12.1818916,,,false,,,,,,,https://www.google.com/maps/place/Elaine+Braeuning+Personal+Trainer/data=!4m7!3m6!1s0x479e26390b3f76ad:0x9a670adae3ae6d95!8m2!3d48.5399918!4d12.1818916!16s%2Fg%2F11f71mvqhn!19sChIJrXY_CzkmnkcRlW2u49oKZ5o?authuser=0&hl=de&rclk=1,2026-05-15T19:38:46Z,temporarily_closed,success,
0x479e2673a07b78a9:0x2f5eb25123fab8e2,Elisabeth Steinmann,84028,"Altstadt 339, 84028 Landshut",5,1,Friseur / Kosmetik,48.5368265,12.1525584,,,false,,,,,,,https://www.google.com/maps/place/Elisabeth+Steinmann/data=!4m7!3m6!1s0x479e2673a07b78a9:0x2f5eb25123fab8e2!8m2!3d48.5368265!4d12.1525584!16s%2Fg%2F1tdwcy5w!19sChIJqXh7oHMmnkcR4rj6I1GyXi8?authuser=0&hl=de&rclk=1,2026-05-15T19:27:35Z,active,success,
0x479e2760a4bab9a7:0x15f534ccafdadbb8,Elmas Lounge,84028,"Zweibrückenstraße 676, 84028 Landshut",4.5,39,Bar / Kneipe,48.5397274,12.1509323,,,false,,,,,,,https://www.google.com/maps/place/Elmas+Lounge/data=!4m7!3m6!1s0x479e2760a4bab9a7:0x15f534ccafdadbb8!8m2!3d48.5397274!4d12.1509323!16s%2Fg%2F11sqvzwc2_!19sChIJp7m6pGAnnkcRuNvar8w09RU?authuser=0&hl=de&rclk=1,2026-05-15T19:05:43Z,active,success,
0x479e25a47833ef79:0x4cd25338fc250225,Energie Südbayern-Ladestation,84028,"Ludwig-Erhard-Straße 9, 84034 Landshut",3.9,22,Sonstiges,48.5398103,12.1004206,,,false,,,,,,,https://www.google.com/maps/place/Energie+S%C3%BCdbayern-Ladestation/data=!4m7!3m6!1s0x479e25a47833ef79:0x4cd25338fc250225!8m2!3d48.5398103!4d12.1004206!16s%2Fg%2F11bwygwkz9!19sChIJee8zeKQlnkcRJQIl_DhT0kw?authuser=0&hl=de&rclk=1,2026-05-15T19:56:50Z,active,success,
0x479e27ef168992b7:0x8e82b04a899d554,Energiegeis,84028,"Andreas-Forster-Weg, 84034 Landshut",,,Sonstiges,48.5392,12.14579,,,false,,,,,,,https://www.google.com/maps/place/Energiegeis/data=!4m7!3m6!1s0x479e27ef168992b7:0x8e82b04a899d554!8m2!3d48.5392!4d12.14579!16s%2Fg%2F11stz92hl_!19sChIJt5KJFu8nnkcRVNWZqAQr6Ag?authuser=0&hl=de&rclk=1,2026-05-15T19:41:55Z,active,success,
0x479e26783bdca015:0x66606f263cacef25,Eni Café & Shop,84028,"Wittstraße 15, 84036 Landshut",1,1,Sonstiges,48.5292399,12.1429713,,,false,,,,,,,https://www.google.com/maps/place/Eni+Caf%C3%A9+%26+Shop/data=!4m7!3m6!1s0x479e26783bdca015:0x66606f263cacef25!8m2!3d48.5292399!4d12.1429713!16s%2Fg%2F11s4601dxm!19sChIJFaDcO3gmnkcRJe-sPCZvYGY?authuser=0&hl=de&rclk=1,2026-05-15T19:55:53Z,active,success,
0x479e273e23505869:0xf1d13d040476396,Enkis Tagesbar,84028,"Schirmgasse 264, 84028 Landshut",5,29,Café / Konditorei,48.5350139,12.1517119,,,false,,,,,,,https://www.google.com/maps/place/Enkis+Tagesbar/data=!4m7!3m6!1s0x479e273e23505869:0xf1d13d040476396!8m2!3d48.5350139!4d12.1517119!16s%2Fg%2F11xf5jzcwy!19sChIJaVhQIz4nnkcRlmNHQNATHQ8?authuser=0&hl=de&rclk=1,2026-05-15T19:05:07Z,active,success,
0x479e275cb6064213:0x769ec569bb8c073f,Esso,84028,"Siemensstraße 19, 84030 Landshut",4.3,55,Sonstiges,48.5566493,12.1531865,,,false,,,,,,,https://www.google.com/maps/place/Esso/data=!4m7!3m6!1s0x479e275cb6064213:0x769ec569bb8c073f!8m2!3d48.5566493!4d12.1531865!16s%2Fg%2F11y597zsm9!19sChIJE0IGtlwnnkcRPweMu2nFnnY?authuser=0&hl=de&rclk=1,2026-05-15T19:55:26Z,active,success,
0x479e28a7e2a76e45:0x19a07d3479d16079,Esso,84028,"Neue Regensburger Str. 44, 84030 Ergolding",4.3,179,Sonstiges,48.5589135,12.1666427,,,false,,,,,,,https://www.google.com/maps/place/Esso/data=!4m7!3m6!1s0x479e28a7e2a76e45:0x19a07d3479d16079!8m2!3d48.5589135!4d12.1666427!16s%2Fg%2F1td70_33!19sChIJRW6n4qconkcReWDReTR9oBk?authuser=0&hl=de&rclk=1,2026-05-15T19:55:31Z,active,success,
0x479e2596e5973789:0x548b58ddcc966fd1,Esso,84028,"Äußere Parkstraße 21, 84032 Altdorf",4.4,229,Sonstiges,48.5469644,12.1123586,,,false,,,,,,,https://www.google.com/maps/place/Esso/data=!4m7!3m6!1s0x479e2596e5973789:0x548b58ddcc966fd1!8m2!3d48.5469644!4d12.1123586!16s%2Fg%2F1v2d_hdc!19sChIJiTeX5ZYlnkcR0W-WzN1Yi1Q?authuser=0&hl=de&rclk=1,2026-05-15T19:55:57Z,active,success,
0x479e25007292f937:0x6243d97c66e319ad,Esso,84028,"Luitpoldstraße 34, 84034 Landshut",3.7,43,Sonstiges,48.5409303,12.1414283,,,false,,,,,,,https://www.google.com/maps/place/Esso/data=!4m7!3m6!1s0x479e25007292f937:0x6243d97c66e319ad!8m2!3d48.5409303!4d12.1414283!16s%2Fg%2F11w59095y1!19sChIJN_mScgAlnkcRrRnjZnzZQ2I?authuser=0&hl=de&rclk=1,2026-05-15T19:54:37Z,active,success,
0x479e2f800da2a537:0x28944f9a1973ffe9,Esso,84028,"Am Aicher Feld 1, 84032 Altdorf",4.4,572,Sonstiges,48.5658342,12.1010266,,,false,,,,,,,https://www.google.com/maps/place/Esso/data=!4m7!3m6!1s0x479e2f800da2a537:0x28944f9a1973ffe9!8m2!3d48.5658342!4d12.1010266!16s%2Fg%2F1tct7q7x!19sChIJN6WiDYAvnkcR6f9zGZpPlCg?authuser=0&hl=de&rclk=1,2026-05-15T19:56:17Z,active,success,
0x479e25b43a3cb64d:0xdd96b5b144af2565,Esso,84028,"Hofmark-Aich-Straße 22, 84030 Landshut",3.3,13,Sonstiges,48.5483102,12.1475086,,,false,,,,,,,https://www.google.com/maps/place/Esso/data=!4m7!3m6!1s0x479e25b43a3cb64d:0xdd96b5b144af2565!8m2!3d48.5483102!4d12.1475086!16s%2Fg%2F11vy5szb6w!19sChIJTbY8OrQlnkcRZSWvRLG1lt0?authuser=0&hl=de&rclk=1,2026-05-15T19:54:48Z,active,success,
0x479e259b342990e7:0x2e1dc7d376abb07a,Estilo Atelier by Sabrina,84028,"Dekan-Wagner-Straße 22A, 84032 Altdorf",4.8,70,Friseur / Kosmetik,48.55419,12.1059,,,false,,,,,,,https://www.google.com/maps/place/Estilo+Atelier+by+Sabrina/data=!4m7!3m6!1s0x479e259b342990e7:0x2e1dc7d376abb07a!8m2!3d48.55419!4d12.1059!16s%2Fg%2F1tfgc6nt!19sChIJ55ApNJslnkcRerCrdtPHHS4?authuser=0&hl=de&rclk=1,2026-05-15T19:33:54Z,active,success,
0x479e2621b685e4f7:0x8d65f3bc8e2dd949,Explosives Wing Chun Schule Landshut,84028,"Breslauer Str. 123, 84028 Ergolding",4.6,24,Fitness / Sport,48.5533792,12.1773253,,,false,,,,,,,https://www.google.com/maps/place/Explosives+Wing+Chun+Schule+Landshut/data=!4m7!3m6!1s0x479e2621b685e4f7:0x8d65f3bc8e2dd949!8m2!3d48.5533792!4d12.1773253!16s%2Fg%2F1thk_vgn!19sChIJ9-SFtiEmnkcRSdktjrzzZY0?authuser=0&hl=de&rclk=1,2026-05-15T19:42:26Z,active,success,
0x479e260670d37f65:0xaeae7cd97edddc35,FC Eintracht Landshut e.V.,84028,"Auerweg 8A, 84030 Landshut",4.2,57,Verein,48.5513,12.1562175,,,false,,,,,,,https://www.google.com/maps/place/FC+Eintracht+Landshut+e.V./data=!4m7!3m6!1s0x479e260670d37f65:0xaeae7cd97edddc35!8m2!3d48.5513!4d12.1562175!16s%2Fg%2F1tjs3y58!19sChIJZX_TcAYmnkcRNdzdftl8rq4?authuser=0&hl=de&rclk=1,2026-05-15T19:10:02Z,active,success,
0x479e276f21895b45:0x493ad697a30bc375,FIT Familien-Interventions-Team eK - Büro Landshut,84028,"Schwestergasse 26B, 84034 Landshut",3.4,5,Sonstiges,48.5449071,12.1496091,,,false,,,,,,,https://www.google.com/maps/place/FIT+Familien-Interventions-Team+eK+-+B%C3%BCro+Landshut/data=!4m7!3m6!1s0x479e276f21895b45:0x493ad697a30bc375!8m2!3d48.5449071!4d12.1496091!16s%2Fg%2F11ll6lv_7t!19sChIJRVuJIW8nnkcRdcMLo5fWOkk?authuser=0&hl=de&rclk=1,2026-05-15T19:42:31Z,active,success,
0x479e25f7a909fd4b:0x5d0b060acbb5727c,FIT PLUS Fitness Center GmbH,84028,"Altdorfer Str. 38, 84030 Landshut",4.6,290,Fitness / Sport,48.5594621,12.1372177,,,false,,,,,,,https://www.google.com/maps/place/FIT+PLUS+Fitness+Center+GmbH/data=!4m7!3m6!1s0x479e25f7a909fd4b:0x5d0b060acbb5727c!8m2!3d48.5594621!4d12.1372177!16s%2Fg%2F1tg9m3b3!19sChIJS_0JqfclnkcRfHK1ywoGC10?authuser=0&hl=de&rclk=1,2026-05-15T19:36:50Z,active,success,
0x479e25fffd4788e1:0xfb45ea3daf9b3093,FITCOMPANY Physiotherapie im BMW Werk Landshut,84028,"BMW Werk, Ohmstr. 2, Geb. 89, 84030 Landshut",5,2,Fitness / Sport,48.5591,12.153259,,,false,,,,,,,https://www.google.com/maps/place/FITCOMPANY+Physiotherapie+im+BMW+Werk+Landshut/data=!4m7!3m6!1s0x479e25fffd4788e1:0xfb45ea3daf9b3093!8m2!3d48.5591!4d12.153259!16s%2Fg%2F11g6xnh99q!19sChIJ4YhH_f8lnkcRkzCbrz3qRfs?authuser=0&hl=de&rclk=1,2026-05-15T19:40:58Z,active,success,
0x479e232839d3a85f:0xbb4e6124190fa0ef,FITOMAT Eching,84028,"Strogenweg 4, 84174 Eching",4.2,32,Fitness / Sport,48.485793,12.01527,,,false,,,,,,,https://www.google.com/maps/place/FITOMAT+Eching/data=!4m7!3m6!1s0x479e232839d3a85f:0xbb4e6124190fa0ef!8m2!3d48.485793!4d12.01527!16s%2Fg%2F11y6540csl!19sChIJX6jTOSgjnkcR76APGSRhTrs?authuser=0&hl=de&rclk=1,2026-05-16T07:21:54Z,active,success,
0x479e2670ca0b64e7:0x6fdde547fe3a947f,FLUX,84028,"Kapuzinerweg 3, 84028 Landshut",3.6,116,Club / Diskothek,48.5388022,12.1558371,,,false,,,,,,,https://www.google.com/maps/place/FLUX/data=!4m7!3m6!1s0x479e2670ca0b64e7:0x6fdde547fe3a947f!8m2!3d48.5388022!4d12.1558371!16s%2Fg%2F11b7lnm97b!19sChIJ52QLynAmnkcRf5Q6_kfl3W8?authuser=0&hl=de&rclk=1,2026-05-15T19:06:07Z,active,success,
0x479e2573de88640d:0x4e25b211bfb4338,FP Golf Lounge,84028,"Altdorfer Str. 38, 84030 Landshut",5,3,Sonstiges,48.5594468,12.1374723,,,false,,,,,,,https://www.google.com/maps/place/FP+Golf+Lounge/data=!4m7!3m6!1s0x479e2573de88640d:0x4e25b211bfb4338!8m2!3d48.5594468!4d12.1374723!16s%2Fg%2F11wq31_v4w!19sChIJDWSI3nMlnkcROEP7GyFb4gQ?authuser=0&hl=de&rclk=1,2026-05-15T19:41:06Z,active,success,
0x479e26115f07a483:0xb900b0ae8856ad66,Familienzentrum Landshut e. V.,84028,"Schützenstraße 2, 84028 Landshut",4.7,39,Verein,48.5432764,12.1652725,,,false,,,,,,,https://www.google.com/maps/place/Familienzentrum+Landshut+e.+V./data=!4m7!3m6!1s0x479e26115f07a483:0xb900b0ae8856ad66!8m2!3d48.5432764!4d12.1652725!16s%2Fg%2F1tp0729z!19sChIJg6QHXxEmnkcRZq1WiK6wALk?authuser=0&hl=de&rclk=1,2026-05-15T19:14:50Z,active,success,
0x479e2672fe65394f:0x15fa71a1431109d0,Figaro Landshut,84028,"Neustadt 450, 84028 Landshut",4.5,55,Friseur / Kosmetik,48.5369674,12.1539386,,,false,,,,,,,https://www.google.com/maps/place/Figaro+Landshut/data=!4m7!3m6!1s0x479e2672fe65394f:0x15fa71a1431109d0!8m2!3d48.5369674!4d12.1539386!16s%2Fg%2F1tf4d07w!19sChIJTzll_nImnkcR0AkRQ6Fx-hU?authuser=0&hl=de&rclk=1,2026-05-15T19:23:12Z,active,success,
0x479e27c6c017df45:0xbd5bec5c408c520f,Fire Bar,84028,"Taubengäßchen 342A, 84028 Landshut",4.9,224,Bar / Kneipe,48.536503,12.1529021,,,false,,,,,,,https://www.google.com/maps/place/Fire+Bar/data=!4m7!3m6!1s0x479e27c6c017df45:0xbd5bec5c408c520f!8m2!3d48.536503!4d12.1529021!16s%2Fg%2F11y2b3pzly!19sChIJRd8XwMYnnkcRD1KMQFzsW70?authuser=0&hl=de&rclk=1,2026-05-15T18:44:06Z,active,success,
0x479e272eaa5ccae3:0x3ef88c02226aa2a2,Firmer Bräu,84028,"Neustadt 523, 84028 Landshut",4.6,504,Restaurant,48.5367923,12.1544013,,,false,,,,,,,https://www.google.com/maps/place/Firmer+Br%C3%A4u/data=!4m7!3m6!1s0x479e272eaa5ccae3:0x3ef88c02226aa2a2!8m2!3d48.5367923!4d12.1544013!16s%2Fg%2F11sh78hrcs!19sChIJ48pcqi4nnkcRoqJqIgKM-D4?authuser=0&hl=de&rclk=1,2026-05-15T18:35:41Z,active,success,
0x479e252ee69b8357:0xc1f6b9e3e30cb891,FirstSleep LA,84028,"Ludwig-Erhard-Straße 18, 84034 Landshut",3.8,119,Hotel,48.5395481,12.1056211,,,false,,,,,,,https://www.google.com/maps/place/FirstSleep+LA/data=!4m10!3m9!1s0x479e252ee69b8357:0xc1f6b9e3e30cb891!5m2!4m1!1i2!8m2!3d48.5395481!4d12.1056211!16s%2Fg%2F11khmvtbqt!19sChIJV4Ob5i4lnkcRkbgM4-O59sE?authuser=0&hl=de&rclk=1,2026-05-15T19:18:37Z,active,success,
0x479e260b48cfa7e7:0xbd5ec2782e70f461,Fit & Body Sporternährung,84028,"Zweibrückenstraße 684, 84028 Landshut",5,78,,48.540355,12.150326,,,false,,,,,,,https://www.google.com/maps/place/Fit+%26+Body+Sportern%C3%A4hrung/data=!4m7!3m6!1s0x479e260b48cfa7e7:0xbd5ec2782e70f461!8m2!3d48.540355!4d12.150326!16s%2Fg%2F12qfwxl1t!19sChIJ56fPSAsmnkcRYfRwLnjCXr0?authuser=0&hl=de&rclk=1,2026-05-15T19:37:19Z,active,success,
0x479e25e6f04471fb:0x5e0c9e8ba3afeab5,Fit Stop Landshut GmbH & Co.KG,84028,"Luitpoldstraße 73-75, 84034 Landshut",4.8,636,Fitness / Sport,48.544446,12.137563,,,false,,,,,,,https://www.google.com/maps/place/Fit+Stop+Landshut+GmbH+%26+Co.KG/data=!4m7!3m6!1s0x479e25e6f04471fb:0x5e0c9e8ba3afeab5!8m2!3d48.544446!4d12.137563!16s%2Fg%2F1vn17j08!19sChIJ-3FE8OYlnkcRteqvo4ueDF4?authuser=0&hl=de&rclk=1,2026-05-15T19:35:54Z,active,success,
0x479e2700109e3601:0xac4bb5eef7128054,Flamingo,84028,"Neustadt 438, 84028 Landshut",4.8,4,Bar / Kneipe,48.5379974,12.1541987,,,false,,,,,,,https://www.google.com/maps/place/Flamingo/data=!4m7!3m6!1s0x479e2700109e3601:0xac4bb5eef7128054!8m2!3d48.5379974!4d12.1541987!16s%2Fg%2F11ytv_xpd2!19sChIJATaeEAAnnkcRVIAS9-61S6w?authuser=0&hl=de&rclk=1,2026-05-15T19:04:09Z,active,success,
0x479e26138eb7c4f9:0xe2b4f3fd914a8be9,Florian Apotheke Landshut,84028,"Niedermayerstraße 8, 84028 Landshut",4.2,31,Apotheke,48.5413556,12.1658766,,,false,,,,,,,https://www.google.com/maps/place/Florian+Apotheke+Landshut/data=!4m7!3m6!1s0x479e26138eb7c4f9:0xe2b4f3fd914a8be9!8m2!3d48.5413556!4d12.1658766!16s%2Fg%2F1wrtbvm5!19sChIJ-cS3jhMmnkcR6YtKkf3ztOI?authuser=0&hl=de&rclk=1,2026-05-15T19:52:11Z,active,success,
0x479e273aa45c512d:0xcd44a931b4286586,Foodie's Landshut,84028,"Kapuzinerweg 14, 84028 Landshut",4.1,8,Café / Konditorei,48.5396959,12.1553109,,,false,,,,,,,https://www.google.com/maps/place/Foodie%27s+Landshut/data=!4m7!3m6!1s0x479e273aa45c512d:0xcd44a931b4286586!8m2!3d48.5396959!4d12.1553109!16s%2Fg%2F11rc04lkw7!19sChIJLVFcpDonnkcRhmUotDGpRM0?authuser=0&hl=de&rclk=1,2026-05-15T18:39:31Z,active,success,
0x479e28140ac21129:0x2bce552c2b67fff1,Frauenberger Stubn,84028,"Frauenberg 6, 84036 Landshut",4.8,62,Restaurant,48.5654792,12.2422859,,,false,,,,,,,https://www.google.com/maps/place/Frauenberger+Stubn/data=!4m7!3m6!1s0x479e28140ac21129:0x2bce552c2b67fff1!8m2!3d48.5654792!4d12.2422859!16s%2Fg%2F11g8_0pl87!19sChIJKRHCChQonkcR8f9nKyxVzis?authuser=0&hl=de&rclk=1,2026-05-15T19:07:26Z,active,success,
0x479e290c48009529:0x5dc88da5002e43f6,Fridays Club Landshut,84028,"Meisenstraße 28, 84030 Ergolding",2.8,36,Club / Diskothek,48.5596964,12.1557818,,,false,,,,,,,https://www.google.com/maps/place/Fridays+Club+Landshut/data=!4m7!3m6!1s0x479e290c48009529:0x5dc88da5002e43f6!8m2!3d48.5596964!4d12.1557818!16s%2Fg%2F11twtb1dz8!19sChIJKZUASAwpnkcR9kMuAKWNyF0?authuser=0&hl=de&rclk=1,2026-05-15T19:09:09Z,active,success,
0x479e279b2de83a9f:0x64667a3cea799a2f,Frische Boutique GbR,84028,"Grasgasse 325, 84028 Landshut",5,3,Lebensmittel,48.5361379,12.1535407,,,false,,,,,,,https://www.google.com/maps/place/Frische+Boutique+GbR/data=!4m7!3m6!1s0x479e279b2de83a9f:0x64667a3cea799a2f!8m2!3d48.5361379!4d12.1535407!16s%2Fg%2F11yfg8lfmh!19sChIJnzroLZsnnkcRL5p56jx6ZmQ?authuser=0&hl=de&rclk=1,2026-05-15T19:45:37Z,active,success,
0x479e26722fda1cdf:0xa3611a26cbcbfa7b,Friseuer Perfektion,84028,"Neustadt 469, 84028 Landshut",5,3,Friseur / Kosmetik,48.5348762,12.1536473,,,false,,,,,,,https://www.google.com/maps/place/Friseuer+Perfektion/data=!4m7!3m6!1s0x479e26722fda1cdf:0xa3611a26cbcbfa7b!8m2!3d48.5348762!4d12.1536473!16s%2Fg%2F11gg9df5s3!19sChIJ3xzaL3ImnkcRe_rLyyYaYaM?authuser=0&hl=de&rclk=1,2026-05-15T19:26:25Z,active,success,
0x479e2609d0df489b:0xb125fe839a44788f,Friseur Bartsch,84028,"Schwestergasse 26, 84034 Landshut",4.8,55,Friseur / Kosmetik,48.5443544,12.1499885,,,false,,,,,,,https://www.google.com/maps/place/Friseur+Bartsch/data=!4m7!3m6!1s0x479e2609d0df489b:0xb125fe839a44788f!8m2!3d48.5443544!4d12.1499885!16s%2Fg%2F1tfmmcmx!19sChIJm0jf0AkmnkcRj3hEmoP-JbE?authuser=0&hl=de&rclk=1,2026-05-15T19:22:51Z,active,success,
0x479e2673d00dbcb5:0x32e9e88f9d7e29d9,Friseur George Michael Studio | Landshut | Haarpflege | Kopfhautpflege | Langhaarschnitt,84028,"Nahensteig 186, 84028 Landshut",4.7,130,Friseur / Kosmetik,48.5327892,12.1514866,,,false,,,,,,,https://www.google.com/maps/place/Friseur+George+Michael+Studio+%7C+Landshut+%7C+Haarpflege+%7C+Kopfhautpflege+%7C+Langhaarschnitt/data=!4m7!3m6!1s0x479e2673d00dbcb5:0x32e9e88f9d7e29d9!8m2!3d48.5327892!4d12.1514866!16s%2Fg%2F11b6d4fxyn!19sChIJtbwN0HMmnkcR2Sl-nY_o6TI?authuser=0&hl=de&rclk=1,2026-05-15T19:20:25Z,active,success,
0x479e26710e5e3fe3:0xa090f2ea06d9b969,Friseur Grünberger the professional Art of hair Landshut I Balayage I Blondspezialist I Kevin Murphy Session Salon,84028,"Nahensteig 186, 84028 Landshut",4.7,139,Friseur / Kosmetik,48.532772,12.151487,,,false,,,,,,,https://www.google.com/maps/place/Friseur+Gr%C3%BCnberger+the+professional+Art+of+hair+Landshut+I+Balayage+I+Blondspezialist+I+Kevin+Murphy+Session+Salon/data=!4m7!3m6!1s0x479e26710e5e3fe3:0xa090f2ea06d9b969!8m2!3d48.532772!4d12.151487!16s%2Fg%2F1v3_1ntx!19sChIJ4z9eDnEmnkcRabnZBurykKA?authuser=0&hl=de&rclk=1,2026-05-15T19:19:52Z,active,success,
0x479e2673cb1d1153:0x35553897361813a2,Friseur Haarem,84028,"Steckengasse 302, 84028 Landshut",4.8,169,Friseur / Kosmetik,48.5354102,12.1530306,,,false,,,,,,,https://www.google.com/maps/place/Friseur+Haarem/data=!4m7!3m6!1s0x479e2673cb1d1153:0x35553897361813a2!8m2!3d48.5354102!4d12.1530306!16s%2Fg%2F1td57lwc!19sChIJUxEdy3MmnkcRohMYNpc4VTU?authuser=0&hl=de&rclk=1,2026-05-15T19:20:31Z,active,success,
