id,name,postcode,address,rating,reviewCount,category,lat,lng,bezirkId,bezirkName,hasDefamationNotice,removedMin,removedMax,removedEstimate,deletionRatioPct,realRatingAdjusted,removedText,url,readAt,placeState,status,error
0x479e27deefc81dad:0xf6b8faaffba5285d,"""Karls Leberkas""",84028,,4.7,155,Imbiss,48.5354694,12.1500475,39,Gewerbepark Nürnberg-Feucht,false,,,,,,,https://www.google.com/maps/place/%22Karls+Leberkas%22/data=!4m7!3m6!1s0x479e27deefc81dad:0xf6b8faaffba5285d!8m2!3d48.5354694!4d12.1500475!16s%2Fg%2F11fk46fjv5!19sChIJrR3I794nnkcRXSil-6_6uPY?authuser=0&hl=de&rclk=1,2026-05-13T20:14:35Z,active,success,
0x479e27ee8d98c4d7:0x4887ba8abcf3c9a1,01 Adana Kebap,84028,,4,65,Döner / Kebab,48.5462733,12.1530032,39,Gewerbepark Nürnberg-Feucht,false,,,,,,,https://www.google.com/maps/place/01+Adana+Kebap/data=!4m7!3m6!1s0x479e27ee8d98c4d7:0x4887ba8abcf3c9a1!8m2!3d48.5462733!4d12.1530032!16s%2Fg%2F11rrh9_9cx!19sChIJ18SYje4nnkcRocnzvIq6h0g?authuser=0&hl=de&rclk=1,2026-05-13T20:15:33Z,active,success,
0x479e27c658ae884f:0xf790d4ea916d1b10,1855 Retro,84028,,4.9,147,Restaurant,48.5393435,12.1559225,39,Gewerbepark Nürnberg-Feucht,false,,,,,,,https://www.google.com/maps/place/1855+Retro/data=!4m7!3m6!1s0x479e27c658ae884f:0xf790d4ea916d1b10!8m2!3d48.5393435!4d12.1559225!16s%2Fg%2F11ghn7327p!19sChIJT4iuWMYnnkcREBttkerUkPc?authuser=0&hl=de&rclk=1,2026-05-13T20:07:33Z,active,success,
0x479e2672caf940d1:0x88278ebcc3444a79,35 milli(m)eter Landshut,84028,,3.6,1373,Restaurant,48.5394067,12.1565314,39,Gewerbepark Nürnberg-Feucht,false,,,,,,,https://www.google.com/maps/place/35+milli%28m%29eter+Landshut/data=!4m7!3m6!1s0x479e2672caf940d1:0x88278ebcc3444a79!8m2!3d48.5394067!4d12.1565314!16s%2Fg%2F1tlkbc8r!19sChIJ0UD5ynImnkcReUpEw7yOJ4g?authuser=0&hl=de&rclk=1,2026-05-13T20:07:58Z,active,success,
0x479e26735a1546bf:0x75b3e67d0e1ec6ed,Aladin's Kebap,84028,,4.7,424,Döner / Kebab,48.5459991,12.1799181,39,Gewerbepark Nürnberg-Feucht,true,11,20,15.5,3.53,4.57,11 bis 20 Bewertungen aufgrund von Beschwerden wegen Diffamierung entfernt.,https://www.google.com/maps/place/Aladin%27s+Kebap/data=!4m7!3m6!1s0x479e26735a1546bf:0x75b3e67d0e1ec6ed!8m2!3d48.5459991!4d12.1799181!16s%2Fg%2F1v5k1_cq!19sChIJv0YVWnMmnkcR7cYeDn3ms3U?authuser=0&hl=de&rclk=1,2026-05-13T20:17:32Z,active,success,
0x479e25f08f7a38ef:0x121d635730bfcd03,Ali Baba - Döner Imbiss,84028,,4.8,609,Döner / Kebab,48.5543199,12.1368472,39,Gewerbepark Nürnberg-Feucht,false,,,,,,,https://www.google.com/maps/place/Ali+Baba+-+D%C3%B6ner+Imbiss/data=!4m7!3m6!1s0x479e25f08f7a38ef:0x121d635730bfcd03!8m2!3d48.5543199!4d12.1368472!16s%2Fg%2F11bzzw01bt!19sChIJ7zh6j_AlnkcRA82_MFdjHRI?authuser=0&hl=de&rclk=1,2026-05-13T20:14:27Z,active,success,
0x479e2670d67d7dcb:0x4f912060e53355c6,Altstadt Sushi,84028,,3.9,120,Sushi,48.5321091,12.148853,39,Gewerbepark Nürnberg-Feucht,false,,,,,,,https://www.google.com/maps/place/Altstadt+Sushi/data=!4m7!3m6!1s0x479e2670d67d7dcb:0x4f912060e53355c6!8m2!3d48.5321091!4d12.148853!16s%2Fg%2F1tdz8dph!19sChIJy3191nAmnkcRxlUz5WAgkU8?authuser=0&hl=de&rclk=1,2026-05-13T20:22:44Z,active,success,
0x479e279959809e91:0x5314526b9420925b,Amiri Restaurant,84028,,4.8,196,Restaurant,48.5383173,12.1543931,39,Gewerbepark Nürnberg-Feucht,true,2,5,3.5,1.75,4.733,Zwei bis fünf Bewertungen aufgrund von Beschwerden wegen Diffamierung entfernt.,https://www.google.com/maps/place/Amiri+Restaurant/data=!4m7!3m6!1s0x479e279959809e91:0x5314526b9420925b!8m2!3d48.5383173!4d12.1543931!16s%2Fg%2F11x5sfmrwy!19sChIJkZ6AWZknnkcRW5IglGtSFFM?authuser=0&hl=de&rclk=1,2026-05-13T20:00:23Z,active,success,
0x479e27df4d367433:0x74d3bdfadec065ca,An Lac Chay,84028,,4.5,145,Restaurant,48.5354183,12.1498785,39,Gewerbepark Nürnberg-Feucht,false,,,,,,,https://www.google.com/maps/place/An+Lac+Chay/data=!4m7!3m6!1s0x479e27df4d367433:0x74d3bdfadec065ca!8m2!3d48.5354183!4d12.1498785!16s%2Fg%2F11l61x9902!19sChIJM3Q2Td8nnkcRymXA3vq903Q?authuser=0&hl=de&rclk=1,2026-05-13T20:16:29Z,active,success,
0x479e267250688f4d:0x4a681a063998582c,Aperitivo,84028,,4.8,74,Café / Konditorei,48.5362301,12.1544664,39,Gewerbepark Nürnberg-Feucht,false,,,,,,,https://www.google.com/maps/place/Aperitivo/data=!4m7!3m6!1s0x479e267250688f4d:0x4a681a063998582c!8m2!3d48.5362301!4d12.1544664!16s%2Fg%2F11bv6pw94f!19sChIJTY9oUHImnkcRLFiYOQYaaEo?authuser=0&hl=de&rclk=1,2026-05-13T20:04:24Z,active,success,
0x479e25e0bc8a98eb:0xf3c78c977edd7394,Arena Bistro,84028,,4.1,89,Restaurant,48.541557,12.1406296,39,Gewerbepark Nürnberg-Feucht,false,,,,,,,https://www.google.com/maps/place/Arena+Bistro/data=!4m7!3m6!1s0x479e25e0bc8a98eb:0xf3c78c977edd7394!8m2!3d48.541557!4d12.1406296!16s%2Fg%2F11cs1dwd30!19sChIJ65iKvOAlnkcRlHPdfpeMx_M?authuser=0&hl=de&rclk=1,2026-05-13T20:16:16Z,active,success,
0x479e260041fe2951:0x3bb24003a80ff6c4,Arena Döner,84028,,4.7,618,Döner / Kebab,48.5577188,12.1548486,39,Gewerbepark Nürnberg-Feucht,true,6,10,8,1.28,4.653,Sechs bis zehn Bewertungen aufgrund von Beschwerden wegen Diffamierung entfernt.,https://www.google.com/maps/place/Arena+D%C3%B6ner/data=!4m7!3m6!1s0x479e260041fe2951:0x3bb24003a80ff6c4!8m2!3d48.5577188!4d12.1548486!16s%2Fg%2F11c6pldfkk!19sChIJUSn-QQAmnkcRxPYPqANAsjs?authuser=0&hl=de&rclk=1,2026-05-13T20:16:10Z,active,success,
0x479e2733b58a26b9:0x1efa602686644fb7,Arena Döner 2,84028,,4.7,56,Döner / Kebab,48.5522169,12.161414,39,Gewerbepark Nürnberg-Feucht,false,,,,,,,https://www.google.com/maps/place/Arena+D%C3%B6ner+2/data=!4m7!3m6!1s0x479e2733b58a26b9:0x1efa602686644fb7!8m2!3d48.5522169!4d12.161414!16s%2Fg%2F11r7642jk7!19sChIJuSaKtTMnnkcRt09khiZg-h4?authuser=0&hl=de&rclk=1,2026-05-13T20:19:14Z,active,success,
0x479e25e5e9e12359:0x3b6119655b3b605f,Asia Hung Landshut,84028,,3.6,309,Asiatisch,48.547142,12.1362555,39,Gewerbepark Nürnberg-Feucht,false,,,,,,,https://www.google.com/maps/place/Asia+Hung+Landshut/data=!4m7!3m6!1s0x479e25e5e9e12359:0x3b6119655b3b605f!8m2!3d48.547142!4d12.1362555!16s%2Fg%2F11g98m20cl!19sChIJWSPh6eUlnkcRX2A7W2UZYTs?authuser=0&hl=de&rclk=1,2026-05-13T20:16:42Z,active,success,
0x479e260ceaee2cb7:0xfe3803c51a21be59,Asia Wok Express - Heimservice,84028,,4,127,Asiatisch,48.5406973,12.1538413,39,Gewerbepark Nürnberg-Feucht,false,,,,,,,https://www.google.com/maps/place/Asia+Wok+Express+-+Heimservice/data=!4m7!3m6!1s0x479e260ceaee2cb7:0xfe3803c51a21be59!8m2!3d48.5406973!4d12.1538413!16s%2Fg%2F11cl_k2d2k!19sChIJtyzu6gwmnkcRWb4hGsUDOP4?authuser=0&hl=de&rclk=1,2026-05-13T20:19:59Z,temporarily_closed,success,
0x479e260cbbe610b7:0x6ac2240483bfe2af,Augustiner Zur Schleuse,84028,,4.5,1159,Restaurant,48.5402978,12.1533168,39,Gewerbepark Nürnberg-Feucht,false,,,,,,,https://www.google.com/maps/place/Augustiner+Zur+Schleuse/data=!4m7!3m6!1s0x479e260cbbe610b7:0x6ac2240483bfe2af!8m2!3d48.5402978!4d12.1533168!16s%2Fg%2F1tph0qsx!19sChIJtxDmuwwmnkcRr-K_gwQkwmo?authuser=0&hl=de&rclk=1,2026-05-13T20:10:55Z,active,success,
0x479e2673d92b06e9:0xac0e6adb4973be2a,Augustiner an der Sankt Martinskirche,84028,,4.6,3166,Restaurant,48.534704,12.1516433,39,Gewerbepark Nürnberg-Feucht,false,,,,,,,https://www.google.com/maps/place/Augustiner+an+der+Sankt+Martinskirche/data=!4m7!3m6!1s0x479e2673d92b06e9:0xac0e6adb4973be2a!8m2!3d48.534704!4d12.1516433!16s%2Fg%2F11gzcmff_!19sChIJ6QYr2XMmnkcRKr5zSdtqDqw?authuser=0&hl=de&rclk=1,2026-05-13T20:01:34Z,active,success,
0x479e250017474277:0xe51b42fc5f9811b7,Automatenkramerei,84028,,4.5,11,Lebensmittel,48.5449751,12.1443407,39,Gewerbepark Nürnberg-Feucht,false,,,,,,,https://www.google.com/maps/place/Automatenkramerei/data=!4m7!3m6!1s0x479e250017474277:0xe51b42fc5f9811b7!8m2!3d48.5449751!4d12.1443407!16s%2Fg%2F11y5tnkmfm!19sChIJd0JHFwAlnkcRtxGYX_xCG-U?authuser=0&hl=de&rclk=1,2026-05-13T20:18:04Z,active,success,
0x479e26736e3d060d:0xec39c35b88cb7acc,BEY KEBAP Landshut,84028,,3.2,165,Döner / Kebab,48.5376646,12.1519484,39,Gewerbepark Nürnberg-Feucht,false,,,,,,,https://www.google.com/maps/place/BEY+KEBAP+Landshut/data=!4m7!3m6!1s0x479e26736e3d060d:0xec39c35b88cb7acc!8m2!3d48.5376646!4d12.1519484!16s%2Fg%2F11ddydd625!19sChIJDQY9bnMmnkcRzHrLiFvDOew?authuser=0&hl=de&rclk=1,2026-05-13T20:13:51Z,active,success,
0x479e2672e4b6105f:0x4217698b8edc1be8,BROTmacher Breu u. Oberprieler GmbH,84028,,4.4,44,Bäckerei,48.53736,12.15456,39,Gewerbepark Nürnberg-Feucht,false,,,,,,,https://www.google.com/maps/place/BROTmacher+Breu+u.+Oberprieler+GmbH/data=!4m7!3m6!1s0x479e2672e4b6105f:0x4217698b8edc1be8!8m2!3d48.53736!4d12.15456!16s%2Fg%2F1ptx9q8df!19sChIJXxC25HImnkcR6BvcjotpF0I?authuser=0&hl=de&rclk=1,2026-05-13T20:19:19Z,active,success,
0x479e25da902c266b:0x29c98c6b038df8a,BROTmacher Breu u. Oberprieler GmbH,84028,,4.1,54,Bäckerei,48.5325184,12.1308391,39,Gewerbepark Nürnberg-Feucht,false,,,,,,,https://www.google.com/maps/place/BROTmacher+Breu+u.+Oberprieler+GmbH/data=!4m7!3m6!1s0x479e25da902c266b:0x29c98c6b038df8a!8m2!3d48.5325184!4d12.1308391!16s%2Fg%2F1pw3ycyvt!19sChIJayYskNolnkcRit84sMaYnAI?authuser=0&hl=de&rclk=1,2026-05-13T20:26:15Z,active,success,
0x479e25e9831db1b5:0xe86ebd7311b2428a,BROTmacher Breu u. Oberprieler GmbH,84028,,4.1,109,Bäckerei,48.5352463,12.0843889,49,"Kornburg, Worzeldorf",false,,,,,,,https://www.google.com/maps/place/BROTmacher+Breu+u.+Oberprieler+GmbH/data=!4m7!3m6!1s0x479e25e9831db1b5:0xe86ebd7311b2428a!8m2!3d48.5352463!4d12.0843889!16s%2Fg%2F11hmjr7j63!19sChIJtbEdg-klnkcRikKyEXO9bug?authuser=0&hl=de&rclk=1,2026-05-13T20:28:00Z,active,success,
0x479e26713dc8168d:0x9c94d9f6eebeb2f4,BROTmacher Breu u. Oberprieler GmbH,84028,,4.2,68,Bäckerei,48.5355981,12.1517983,39,Gewerbepark Nürnberg-Feucht,false,,,,,,,https://www.google.com/maps/place/BROTmacher+Breu+u.+Oberprieler+GmbH/data=!4m7!3m6!1s0x479e26713dc8168d:0x9c94d9f6eebeb2f4!8m2!3d48.5355981!4d12.1517983!16s%2Fg%2F1ptwcc681!19sChIJjRbIPXEmnkcR9LK-7vbZlJw?authuser=0&hl=de&rclk=1,2026-05-13T20:08:25Z,active,success,
0x479e25e179693e63:0xec52c5fc4ae43774,BROTmacher Breu u. Oberprieler GmbH,84028,,4.2,127,Bäckerei,48.5451312,12.1435643,39,Gewerbepark Nürnberg-Feucht,false,,,,,,,https://www.google.com/maps/place/BROTmacher+Breu+u.+Oberprieler+GmbH/data=!4m7!3m6!1s0x479e25e179693e63:0xec52c5fc4ae43774!8m2!3d48.5451312!4d12.1435643!16s%2Fg%2F1tfjdjj1!19sChIJYz5peeElnkcRdDfkSvzFUuw?authuser=0&hl=de&rclk=1,2026-05-13T20:24:52Z,active,success,
0x479e2676d19e2737:0x93e1c6d41682fce0,BROTmacher Breu und Oberprieler GmbH Drive in,84028,,4.3,653,Bäckerei,48.5327935,12.1482552,39,Gewerbepark Nürnberg-Feucht,false,,,,,,,https://www.google.com/maps/place/BROTmacher+Breu+und+Oberprieler+GmbH+Drive+in/data=!4m7!3m6!1s0x479e2676d19e2737:0x93e1c6d41682fce0!8m2!3d48.5327935!4d12.1482552!16s%2Fg%2F11c58v0qt5!19sChIJNyee0XYmnkcR4PyCFtTG4ZM?authuser=0&hl=de&rclk=1,2026-05-13T20:07:20Z,active,success,
0x479e279a9b783a83:0x64c95ccd1ec28033,Backstube Wünsche,84028,,3.8,12,Bäckerei,48.5535905,12.1585406,39,Gewerbepark Nürnberg-Feucht,false,,,,,,,https://www.google.com/maps/place/Backstube+W%C3%BCnsche/data=!4m7!3m6!1s0x479e279a9b783a83:0x64c95ccd1ec28033!8m2!3d48.5535905!4d12.1585406!16s%2Fg%2F11f8bzy170!19sChIJgzp4m5onnkcRM4DCHs1cyWQ?authuser=0&hl=de&rclk=1,2026-05-13T20:27:21Z,active,success,
0x479e2700747371bd:0x4642861ecfde843f,Balkan & International Imbiss,84028,,4.5,18,Imbiss,48.5552047,12.1524066,39,Gewerbepark Nürnberg-Feucht,true,1,1,1,5.26,4.316,Eine Bewertung aufgrund einer Beschwerde wegen Diffamierung entfernt.,https://www.google.com/maps/place/Balkan+%26+International+Imbiss/data=!4m7!3m6!1s0x479e2700747371bd:0x4642861ecfde843f!8m2!3d48.5552047!4d12.1524066!16s%2Fg%2F11vxcvx25f!19sChIJvXFzdAAnnkcRP4Tezx6GQkY?authuser=0&hl=de&rclk=1,2026-05-13T20:19:53Z,temporarily_closed,success,
0x479e27ba7d3a763b:0xec804b093873c383,Balkan Fusion Landshut,84028,,4.8,54,Imbiss,48.5404125,12.1004253,39,Gewerbepark Nürnberg-Feucht,false,,,,,,,https://www.google.com/maps/place/Balkan+Fusion+Landshut/data=!4m7!3m6!1s0x479e27ba7d3a763b:0xec804b093873c383!8m2!3d48.5404125!4d12.1004253!16s%2Fg%2F11wfvjp9z7!19sChIJO3Y6fbonnkcRg8NzOAlLgOw?authuser=0&hl=de&rclk=1,2026-05-13T20:18:10Z,active,success,
0x479e279601c702e3:0xcd687039ab6c0afb,Balkan Grill Landshut - Halal Fastfood,84028,,5,69,Imbiss,48.5559772,12.15329,39,Gewerbepark Nürnberg-Feucht,false,,,,,,,https://www.google.com/maps/place/Balkan+Grill+Landshut+-+Halal+Fastfood/data=!4m7!3m6!1s0x479e279601c702e3:0xcd687039ab6c0afb!8m2!3d48.5559772!4d12.15329!16s%2Fg%2F11xlg2gghv!19sChIJ4wLHAZYnnkcR-wpsqzlwaM0?authuser=0&hl=de&rclk=1,2026-05-13T20:13:58Z,active,success,
0x479e271a585cabc9:0xc436361db39a5d36,Beyt Beytak Abu Ali,84028,,4.9,197,Restaurant,48.5367111,12.15594,39,Gewerbepark Nürnberg-Feucht,true,2,5,3.5,1.75,4.832,Zwei bis fünf Bewertungen aufgrund von Beschwerden wegen Diffamierung entfernt.,https://www.google.com/maps/place/Beyt+Beytak+Abu+Ali/data=!4m7!3m6!1s0x479e271a585cabc9:0xc436361db39a5d36!8m2!3d48.5367111!4d12.15594!16s%2Fg%2F11szkm8mt9!19sChIJyatcWBonnkcRNl2asx02NsQ?authuser=0&hl=de&rclk=1,2026-05-13T20:15:48Z,active,success,
0x479e278c6ce10aa7:0x675c8b8681f37e7a,Biobäckerei Wagner,84028,,4.3,46,Bäckerei,48.53543,12.15348,39,Gewerbepark Nürnberg-Feucht,false,,,,,,,https://www.google.com/maps/place/Biob%C3%A4ckerei+Wagner/data=!4m7!3m6!1s0x479e278c6ce10aa7:0x675c8b8681f37e7a!8m2!3d48.53543!4d12.15348!16s%2Fg%2F11yh1w6m82!19sChIJpwrhbIwnnkcRen7zgYaLXGc?authuser=0&hl=de&rclk=1,2026-05-13T20:23:44Z,active,success,
0x479e260cafb37379:0x22078c8a1dbb1810,Brotstation Inh. Marc Retzer,84028,,4.9,17,Bäckerei,48.5468318,12.151468,39,Gewerbepark Nürnberg-Feucht,false,,,,,,,https://www.google.com/maps/place/Brotstation+Inh.+Marc+Retzer/data=!4m7!3m6!1s0x479e260cafb37379:0x22078c8a1dbb1810!8m2!3d48.5468318!4d12.151468!16s%2Fg%2F1tfzwgzk!19sChIJeXOzrwwmnkcREBi7HYqMByI?authuser=0&hl=de&rclk=1,2026-05-13T20:27:36Z,active,success,
0x479e27a4854984e5:0x56e8651367f6ce02,Burger King Landshut,84028,,3.1,160,Imbiss,48.539401,12.1561002,39,Gewerbepark Nürnberg-Feucht,false,,,,,,,https://www.google.com/maps/place/Burger+King+Landshut/data=!4m7!3m6!1s0x479e27a4854984e5:0x56e8651367f6ce02!8m2!3d48.539401!4d12.1561002!16s%2Fg%2F11fpd9t8bn!19sChIJ5YRJhaQnnkcRAs72ZxNl6FY?authuser=0&hl=de&rclk=1,2026-05-13T20:19:46Z,active,success,
0x479e25fde38fc5a1:0xaceb6b86f97d769b,Burger King Landshut,84028,,3.1,2223,Imbiss,48.555,12.1502778,39,Gewerbepark Nürnberg-Feucht,false,,,,,,,https://www.google.com/maps/place/Burger+King+Landshut/data=!4m7!3m6!1s0x479e25fde38fc5a1:0xaceb6b86f97d769b!8m2!3d48.555!4d12.1502778!16s%2Fg%2F1tscm_07!19sChIJocWP4_0lnkcRm3Z9-YZr66w?authuser=0&hl=de&rclk=1,2026-05-13T20:17:50Z,active,success,
0x479e27a7b4650801:0x6ebda688c99b983a,Burgerlon,84028,,4.8,589,Burger,48.5386318,12.1532574,39,Gewerbepark Nürnberg-Feucht,false,,,,,,,https://www.google.com/maps/place/Burgerlon/data=!4m7!3m6!1s0x479e27a7b4650801:0x6ebda688c99b983a!8m2!3d48.5386318!4d12.1532574!16s%2Fg%2F11h1dcrdtr!19sChIJAQhltKcnnkcROpibyYimvW4?authuser=0&hl=de&rclk=1,2026-05-13T20:02:21Z,active,success,
0x479e2604e7d81431:0xee29f67c4f636869,Bäcker Bachmeier,84028,,3.4,17,Bäckerei,48.5521874,12.1618223,39,Gewerbepark Nürnberg-Feucht,false,,,,,,,https://www.google.com/maps/place/B%C3%A4cker+Bachmeier/data=!4m7!3m6!1s0x479e2604e7d81431:0xee29f67c4f636869!8m2!3d48.5521874!4d12.1618223!16s%2Fg%2F11b6dg3x_z!19sChIJMRTY5wQmnkcRaWhjT3z2Ke4?authuser=0&hl=de&rclk=1,2026-05-13T20:28:14Z,active,success,
0x479e26739dd7da27:0xd61213018681644a,Bäcker Bachmeier,84028,,3.2,24,Bäckerei,48.5366893,12.1521771,39,Gewerbepark Nürnberg-Feucht,false,,,,,,,https://www.google.com/maps/place/B%C3%A4cker+Bachmeier/data=!4m7!3m6!1s0x479e26739dd7da27:0xd61213018681644a!8m2!3d48.5366893!4d12.1521771!16s%2Fg%2F11gh2qxzg5!19sChIJJ9rXnXMmnkcRSmSBhgETEtY?authuser=0&hl=de&rclk=1,2026-05-13T20:25:59Z,active,success,
0x479e260d35942763:0xb58cf132f9be8986,Bäcker Bachmeier,84028,,3.1,65,Bäckerei,48.5395073,12.1559437,39,Gewerbepark Nürnberg-Feucht,false,,,,,,,https://www.google.com/maps/place/B%C3%A4cker+Bachmeier/data=!4m7!3m6!1s0x479e260d35942763:0xb58cf132f9be8986!8m2!3d48.5395073!4d12.1559437!16s%2Fg%2F1tdfb2ps!19sChIJYyeUNQ0mnkcRhom--TLxjLU?authuser=0&hl=de&rclk=1,2026-05-13T20:24:10Z,active,success,
0x479e25de3b54b1cf:0x7230bfee99dd3b29,Bäcker Bachmeier,84028,,3.5,16,Bäckerei,48.5401797,12.1408192,39,Gewerbepark Nürnberg-Feucht,false,,,,,,,https://www.google.com/maps/place/B%C3%A4cker+Bachmeier/data=!4m7!3m6!1s0x479e25de3b54b1cf:0x7230bfee99dd3b29!8m2!3d48.5401797!4d12.1408192!16s%2Fg%2F11gh2qvr7k!19sChIJz7FUO94lnkcRKTvdme6_MHI?authuser=0&hl=de&rclk=1,2026-05-13T20:26:48Z,active,success,
0x479e26073031ed95:0xdb828d89f5473efb,Bäcker Bachmeier,84028,,2.6,25,Bäckerei,48.5539424,12.1538334,39,Gewerbepark Nürnberg-Feucht,false,,,,,,,https://www.google.com/maps/place/B%C3%A4cker+Bachmeier/data=!4m7!3m6!1s0x479e26073031ed95:0xdb828d89f5473efb!8m2!3d48.5539424!4d12.1538334!16s%2Fg%2F1tfgc6ny!19sChIJle0xMAcmnkcR-z5H9YmNgts?authuser=0&hl=de&rclk=1,2026-05-13T20:27:29Z,active,success,
0x479e2888f7fdfded:0xcc089b307e3876de,Bäckerei Betz Auloh,84028,,4.8,82,Bäckerei,48.5660154,12.2071215,39,Gewerbepark Nürnberg-Feucht,false,,,,,,,https://www.google.com/maps/place/B%C3%A4ckerei+Betz+Auloh/data=!4m7!3m6!1s0x479e2888f7fdfded:0xcc089b307e3876de!8m2!3d48.5660154!4d12.2071215!16s%2Fg%2F11bc7rgzys!19sChIJ7f3994gonkcR3nY4fjCbCMw?authuser=0&hl=de&rclk=1,2026-05-13T20:27:44Z,active,success,
0x479e26160d343045:0x15738174bf37536c,Bäckerei Betz Landshut,84028,,4.8,216,Bäckerei,48.543163,12.1722482,39,Gewerbepark Nürnberg-Feucht,false,,,,,,,https://www.google.com/maps/place/B%C3%A4ckerei+Betz+Landshut/data=!4m7!3m6!1s0x479e26160d343045:0x15738174bf37536c!8m2!3d48.543163!4d12.1722482!16s%2Fg%2F1xb2ck5h!19sChIJRTA0DRYmnkcRbFM3v3SBcxU?authuser=0&hl=de&rclk=1,2026-05-13T20:10:38Z,active,success,
0x479e26725ff21d17:0x2c4b0a19de2d33c3,Bäckerei Bücherl,84028,,4.6,45,Bäckerei,48.5365002,12.1553276,39,Gewerbepark Nürnberg-Feucht,false,,,,,,,https://www.google.com/maps/place/B%C3%A4ckerei+B%C3%BCcherl/data=!4m7!3m6!1s0x479e26725ff21d17:0x2c4b0a19de2d33c3!8m2!3d48.5365002!4d12.1553276!16s%2Fg%2F1x6q0rk5!19sChIJFx3yX3ImnkcRwzMt3hkKSyw?authuser=0&hl=de&rclk=1,2026-05-13T20:23:51Z,active,success,
0x479e259d1866c7f5:0x11fb1b49ad052918,Bäckerei Bücherl,84028,,3.8,6,Bäckerei,48.5380488,12.1380003,39,Gewerbepark Nürnberg-Feucht,false,,,,,,,https://www.google.com/maps/place/B%C3%A4ckerei+B%C3%BCcherl/data=!4m7!3m6!1s0x479e259d1866c7f5:0x11fb1b49ad052918!8m2!3d48.5380488!4d12.1380003!16s%2Fg%2F11rcs5rvgv!19sChIJ9cdmGJ0lnkcRGCkFrUkb-xE?authuser=0&hl=de&rclk=1,2026-05-13T20:27:01Z,active,success,
0x479e25e7b4935d89:0x9fe1fb79ef23dafe,Bäckerei Frühmorgen,84028,,3.5,90,Bäckerei,48.5439087,12.1352268,39,Gewerbepark Nürnberg-Feucht,false,,,,,,,https://www.google.com/maps/place/B%C3%A4ckerei+Fr%C3%BChmorgen/data=!4m7!3m6!1s0x479e25e7b4935d89:0x9fe1fb79ef23dafe!8m2!3d48.5439087!4d12.1352268!16s%2Fg%2F11bzyqj6gb!19sChIJiV2TtOclnkcR_toj73n74Z8?authuser=0&hl=de&rclk=1,2026-05-13T20:26:05Z,active,success,
0x479e26141a0ce77f:0xb5943a4b6b2dd399,Bäckerei Frühmorgen,84028,,4.3,813,Bäckerei,48.5421781,12.1668215,39,Gewerbepark Nürnberg-Feucht,false,,,,,,,https://www.google.com/maps/place/B%C3%A4ckerei+Fr%C3%BChmorgen/data=!4m7!3m6!1s0x479e26141a0ce77f:0xb5943a4b6b2dd399!8m2!3d48.5421781!4d12.1668215!16s%2Fg%2F1tn006ck!19sChIJf-cMGhQmnkcRmdMta0s6lLU?authuser=0&hl=de&rclk=1,2026-05-13T20:10:03Z,active,success,
0x479e25eec64184c7:0x7195c05f74020fe1,Bäckerei Frühmorgen,84028,,4.2,68,Bäckerei,48.5475852,12.1299939,39,Gewerbepark Nürnberg-Feucht,false,,,,,,,https://www.google.com/maps/place/B%C3%A4ckerei+Fr%C3%BChmorgen/data=!4m7!3m6!1s0x479e25eec64184c7:0x7195c05f74020fe1!8m2!3d48.5475852!4d12.1299939!16s%2Fg%2F11fxvfz0mx!19sChIJx4RBxu4lnkcR4Q8CdF_AlXE?authuser=0&hl=de&rclk=1,2026-05-13T20:25:53Z,active,success,
0x479e267231f77f89:0x58eab4b78eba3d9,Bäckerei Gebel Landshut,84028,,4.1,32,Bäckerei,48.5349407,12.1534188,39,Gewerbepark Nürnberg-Feucht,false,,,,,,,https://www.google.com/maps/place/B%C3%A4ckerei+Gebel+Landshut/data=!4m7!3m6!1s0x479e267231f77f89:0x58eab4b78eba3d9!8m2!3d48.5349407!4d12.1534188!16s%2Fg%2F1tf56w7p!19sChIJiX_3MXImnkcR2aPreEurjgU?authuser=0&hl=de&rclk=1,2026-05-13T20:25:15Z,active,success,
0x479e2674076a7857:0x26a6c0a40c85dfcc,Bäckerei Gebel Landshut,84028,,3.7,56,Bäckerei,48.5350922,12.1495948,39,Gewerbepark Nürnberg-Feucht,false,,,,,,,https://www.google.com/maps/place/B%C3%A4ckerei+Gebel+Landshut/data=!4m7!3m6!1s0x479e2674076a7857:0x26a6c0a40c85dfcc!8m2!3d48.5350922!4d12.1495948!16s%2Fg%2F11cn5r7cgj!19sChIJV3hqB3QmnkcRzN-FDKTApiY?authuser=0&hl=de&rclk=1,2026-05-13T20:05:38Z,active,success,
0x479e25fdc6a8d25b:0x20cbeab6c6766df8,Bäckerei Mareis GmbH,84028,,4.5,707,Bäckerei,48.5545775,12.1504008,39,Gewerbepark Nürnberg-Feucht,false,,,,,,,https://www.google.com/maps/place/B%C3%A4ckerei+Mareis+GmbH/data=!4m7!3m6!1s0x479e25fdc6a8d25b:0x20cbeab6c6766df8!8m2!3d48.5545775!4d12.1504008!16s%2Fg%2F11cjjhl7g3!19sChIJW9Koxv0lnkcR-G12xrbqyyA?authuser=0&hl=de&rclk=1,2026-05-13T20:25:22Z,active,success,
0x479e262333292a5f:0xe04ff0e909fccb02,Bäckerei Mareis GmbH,84028,,4.2,293,Bäckerei,48.5462065,12.1794454,39,Gewerbepark Nürnberg-Feucht,false,,,,,,,https://www.google.com/maps/place/B%C3%A4ckerei+Mareis+GmbH/data=!4m7!3m6!1s0x479e262333292a5f:0xe04ff0e909fccb02!8m2!3d48.5462065!4d12.1794454!16s%2Fg%2F11bzyptdzq!19sChIJXyopMyMmnkcRAsv8CenwT-A?authuser=0&hl=de&rclk=1,2026-05-13T20:24:03Z,active,success,
0x479e2672d8cb2a25:0x94bd6900538c27a2,Bäckerei und Konditorei Wackerl e.K.,84028,,4.3,49,Bäckerei,48.5353386,12.1541096,39,Gewerbepark Nürnberg-Feucht,false,,,,,,,https://www.google.com/maps/place/B%C3%A4ckerei+und+Konditorei+Wackerl+e.K./data=!4m7!3m6!1s0x479e2672d8cb2a25:0x94bd6900538c27a2!8m2!3d48.5353386!4d12.1541096!16s%2Fg%2F1vfn5m_2!19sChIJJSrL2HImnkcRoieMUwBpvZQ?authuser=0&hl=de&rclk=1,2026-05-13T20:24:32Z,active,success,
0x479e260eabdbe76f:0x9162b889d32594ff,Bäckerei und Konditorei Wackerl e.K.,84028,,4.5,165,Bäckerei,48.5445233,12.1540439,39,Gewerbepark Nürnberg-Feucht,false,,,,,,,https://www.google.com/maps/place/B%C3%A4ckerei+und+Konditorei+Wackerl+e.K./data=!4m7!3m6!1s0x479e260eabdbe76f:0x9162b889d32594ff!8m2!3d48.5445233!4d12.1540439!16s%2Fg%2F1vfp75lp!19sChIJb-fbqw4mnkcR_5Ql04m4YpE?authuser=0&hl=de&rclk=1,2026-05-13T20:24:17Z,active,success,
0x479e26773032bb4d:0xa9c33c2781f457b3,Bäckerei-Konditorei Andreas Beck,84028,,5,26,Bäckerei,48.5325909,12.1482167,39,Gewerbepark Nürnberg-Feucht,false,,,,,,,https://www.google.com/maps/place/B%C3%A4ckerei-Konditorei+Andreas+Beck/data=!4m7!3m6!1s0x479e26773032bb4d:0xa9c33c2781f457b3!8m2!3d48.5325909!4d12.1482167!16s%2Fg%2F11d_tns4my!19sChIJTbsyMHcmnkcRs1f0gSc8w6k?authuser=0&hl=de&rclk=1,2026-05-13T20:23:57Z,active,success,
0x479e263cdd80c28f:0x522c553fdf126b8a,CAFFE GELATO ITALIANO by Jerry,84028,,4.8,897,Café / Konditorei,48.5457139,12.1785281,39,Gewerbepark Nürnberg-Feucht,false,,,,,,,https://www.google.com/maps/place/CAFFE+GELATO+ITALIANO+by+Jerry/data=!4m7!3m6!1s0x479e263cdd80c28f:0x522c553fdf126b8a!8m2!3d48.5457139!4d12.1785281!16s%2Fg%2F12hw7hsn3!19sChIJj8KA3TwmnkcRimsS3z9VLFI?authuser=0&hl=de&rclk=1,2026-05-13T20:08:18Z,active,success,
0x479e275b79ca3f9b:0xe33a292c9db9f7c8,CLUBHAUS Landshut,84028,,5,1,Bar / Kneipe,48.5536894,12.1767648,39,Gewerbepark Nürnberg-Feucht,false,,,,,,,https://www.google.com/maps/place/CLUBHAUS+Landshut/data=!4m7!3m6!1s0x479e275b79ca3f9b:0xe33a292c9db9f7c8!8m2!3d48.5536894!4d12.1767648!16s%2Fg%2F11z5rm8g46!19sChIJmz_KeVsnnkcRyPe5nSwpOuM?authuser=0&hl=de&rclk=1,2026-05-13T20:22:17Z,active,success,
0x479e26737bb94841:0x27344ee7bbe4699d,Cafe 113,84028,,4.7,296,Café / Konditorei,48.5374282,12.1514397,39,Gewerbepark Nürnberg-Feucht,false,,,,,,,https://www.google.com/maps/place/Cafe+113/data=!4m7!3m6!1s0x479e26737bb94841:0x27344ee7bbe4699d!8m2!3d48.5374282!4d12.1514397!16s%2Fg%2F11dyn_fk8p!19sChIJQUi5e3MmnkcRnWnku-dONCc?authuser=0&hl=de&rclk=1,2026-05-13T20:03:17Z,active,success,
0x479e26728aa90273:0xb410a6663610489,Cafe Kreuzer Konditorei,84028,,4.4,170,Café / Konditorei,48.5366089,12.1554492,39,Gewerbepark Nürnberg-Feucht,true,2,5,3.5,2.02,4.331,Zwei bis fünf Bewertungen aufgrund von Beschwerden wegen Diffamierung entfernt.,https://www.google.com/maps/place/Cafe+Kreuzer+Konditorei/data=!4m7!3m6!1s0x479e26728aa90273:0xb410a6663610489!8m2!3d48.5366089!4d12.1554492!16s%2Fg%2F1tdx7pwq!19sChIJcwKpinImnkcRiQRhY2YKQQs?authuser=0&hl=de&rclk=1,2026-05-13T20:25:40Z,active,success,
0x479e26736279f4af:0xf0e01113935127a2,Cafe am Isartürl,84028,,4.6,80,Café / Konditorei,48.5378528,12.1510556,39,Gewerbepark Nürnberg-Feucht,false,,,,,,,https://www.google.com/maps/place/Cafe+am+Isart%C3%BCrl/data=!4m7!3m6!1s0x479e26736279f4af:0xf0e01113935127a2!8m2!3d48.5378528!4d12.1510556!16s%2Fg%2F11c59wnj5x!19sChIJr_R5YnMmnkcRoidRkxMR4PA?authuser=0&hl=de&rclk=1,2026-05-13T20:04:17Z,active,success,
0x479e25ec620d02eb:0x368909403295fd73,Café & Weinstube Siebensee,84028,,4.7,152,Café / Konditorei,48.5338861,12.1053647,39,Gewerbepark Nürnberg-Feucht,false,,,,,,,https://www.google.com/maps/place/Caf%C3%A9+%26+Weinstube+Siebensee/data=!4m7!3m6!1s0x479e25ec620d02eb:0x368909403295fd73!8m2!3d48.5338861!4d12.1053647!16s%2Fg%2F11k583lw7y!19sChIJ6wINYuwlnkcRc_2VMkAJiTY?authuser=0&hl=de&rclk=1,2026-05-13T20:08:45Z,active,success,
0x479e25792c5149c7:0x22ad238228092c6d,Café 73 Balkanlounge,84028,,3.8,77,Restaurant,48.5442752,12.1375154,39,Gewerbepark Nürnberg-Feucht,false,,,,,,,https://www.google.com/maps/place/Caf%C3%A9+73+Balkanlounge/data=!4m7!3m6!1s0x479e25792c5149c7:0x22ad238228092c6d!8m2!3d48.5442752!4d12.1375154!16s%2Fg%2F11hf27gzhh!19sChIJx0lRLHklnkcRbSwJKIIjrSI?authuser=0&hl=de&rclk=1,2026-05-13T20:12:44Z,temporarily_closed,success,
0x479e26715afaaeaf:0xc70e85fcd0f6e1e6,Café Aran Kronprinz,84028,,4.7,519,Café / Konditorei,48.5341667,12.1502778,39,Gewerbepark Nürnberg-Feucht,true,51,100,75.5,12.7,4.23,51 bis 100 Bewertungen aufgrund von Beschwerden wegen Diffamierung entfernt.,https://www.google.com/maps/place/Caf%C3%A9+Aran+Kronprinz/data=!4m7!3m6!1s0x479e26715afaaeaf:0xc70e85fcd0f6e1e6!8m2!3d48.5341667!4d12.1502778!16s%2Fg%2F1vlz9bqc!19sChIJr676WnEmnkcR5uH20PyFDsc?authuser=0&hl=de&rclk=1,2026-05-13T20:02:55Z,active,success,
0x479e2673ef2e2ea1:0xcb0828856870a530,Café Belstner,84028,,4.1,863,Café / Konditorei,48.5352857,12.1513793,39,Gewerbepark Nürnberg-Feucht,false,,,,,,,https://www.google.com/maps/place/Caf%C3%A9+Belstner/data=!4m7!3m6!1s0x479e2673ef2e2ea1:0xcb0828856870a530!8m2!3d48.5352857!4d12.1513793!16s%2Fg%2F1tgdbd83!19sChIJoS4u73MmnkcRMKVwaIUoCMs?authuser=0&hl=de&rclk=1,2026-05-13T20:03:35Z,active,success,
0x479e260cd226610f:0x855937f0e99d918e,Café International,84028,,4.4,21,Café / Konditorei,48.5395762,12.1542837,39,Gewerbepark Nürnberg-Feucht,false,,,,,,,https://www.google.com/maps/place/Caf%C3%A9+International/data=!4m7!3m6!1s0x479e260cd226610f:0x855937f0e99d918e!8m2!3d48.5395762!4d12.1542837!16s%2Fg%2F11hbnq2w7r!19sChIJD2Em0gwmnkcRjpGd6fA3WYU?authuser=0&hl=de&rclk=1,2026-05-13T20:04:30Z,active,success,
0x479e2673a9ed5025:0x7d300138c821689a,Café Kaffeekultur Ziegler,84028,,4.3,69,Café / Konditorei,48.5367275,12.1532998,39,Gewerbepark Nürnberg-Feucht,false,,,,,,,https://www.google.com/maps/place/Caf%C3%A9+Kaffeekultur+Ziegler/data=!4m7!3m6!1s0x479e2673a9ed5025:0x7d300138c821689a!8m2!3d48.5367275!4d12.1532998!16s%2Fg%2F1td1hznz!19sChIJJVDtqXMmnkcRmmghyDgBMH0?authuser=0&hl=de&rclk=1,2026-05-13T20:04:09Z,active,success,
0x479e27001ca3d809:0xea478d1688be6f88,Café und Buch Symposium,84028,,4.8,128,Café / Konditorei,48.5369041,12.1546005,39,Gewerbepark Nürnberg-Feucht,false,,,,,,,https://www.google.com/maps/place/Caf%C3%A9+und+Buch+Symposium/data=!4m7!3m6!1s0x479e27001ca3d809:0xea478d1688be6f88!8m2!3d48.5369041!4d12.1546005!16s%2Fg%2F11vm1wr2v6!19sChIJCdijHAAnnkcRiG--iBaNR-o?authuser=0&hl=de&rclk=1,2026-05-13T20:03:07Z,active,success,
0x479e25e17f4ad85f:0xdbea9b312a329d73,Call a Pizza Landshut,84028,,4.4,171,Pizzeria,48.5450775,12.1438004,39,Gewerbepark Nürnberg-Feucht,true,21,50,35.5,17.19,3.815,21 bis 50 Bewertungen aufgrund von Beschwerden wegen Diffamierung entfernt.,https://www.google.com/maps/place/Call+a+Pizza+Landshut/data=!4m7!3m6!1s0x479e25e17f4ad85f:0xdbea9b312a329d73!8m2!3d48.5450775!4d12.1438004!16s%2Fg%2F1ptz0rrj5!19sChIJX9hKf-ElnkcRc50yKjGb6ts?authuser=0&hl=de&rclk=1,2026-05-13T20:21:24Z,active,success,
0x41096619f8e7c8ed:0xa6383a3f6449c3a8,Cantina Ensenada Landshut,84028,,4.3,476,Restaurant,48.5349362,12.1540882,39,Gewerbepark Nürnberg-Feucht,false,,,,,,,https://www.google.com/maps/place/Cantina+Ensenada+Landshut/data=!4m7!3m6!1s0x41096619f8e7c8ed:0xa6383a3f6449c3a8!8m2!3d48.5349362!4d12.1540882!16s%2Fg%2F11b75n3hsz!19sChIJ7cjn-BlmCUERqMNJZD86OKY?authuser=0&hl=de&rclk=1,2026-05-13T20:12:22Z,active,success,
0x479e268c0cc6c619:0x9b6ef6cc099c9e81,Capriccio Italiano,84028,,4.9,101,Pizzeria,48.5133881,12.1552939,39,Gewerbepark Nürnberg-Feucht,false,,,,,,,https://www.google.com/maps/place/Capriccio+Italiano/data=!4m7!3m6!1s0x479e268c0cc6c619:0x9b6ef6cc099c9e81!8m2!3d48.5133881!4d12.1552939!16s%2Fg%2F11d_cyr39k!19sChIJGcbGDIwmnkcRgZ6cCcz2bps?authuser=0&hl=de&rclk=1,2026-05-13T20:20:28Z,active,success,
0x479e2784d3b4b759:0xa5619879c7d49f04,Casa Sicilia,84028,,4.8,250,Restaurant,48.5357024,12.1506164,39,Gewerbepark Nürnberg-Feucht,true,6,10,8,3.1,4.682,Sechs bis zehn Bewertungen aufgrund von Beschwerden wegen Diffamierung entfernt.,https://www.google.com/maps/place/Casa+Sicilia/data=!4m7!3m6!1s0x479e2784d3b4b759:0xa5619879c7d49f04!8m2!3d48.5357024!4d12.1506164!16s%2Fg%2F11thqnf9l8!19sChIJWbe004QnnkcRBJ_Ux3mYYaU?authuser=0&hl=de&rclk=1,2026-05-13T20:00:39Z,active,success,
0x479e2672324a9747:0x238788b042142055,Casa del oliva,84028,,4.6,100,Restaurant,48.5350793,12.1532616,39,Gewerbepark Nürnberg-Feucht,false,,,,,,,https://www.google.com/maps/place/Casa+del+oliva/data=!4m7!3m6!1s0x479e2672324a9747:0x238788b042142055!8m2!3d48.5350793!4d12.1532616!16s%2Fg%2F1tp26825!19sChIJR5dKMnImnkcRVSAUQrCIhyM?authuser=0&hl=de&rclk=1,2026-05-13T20:06:13Z,active,success,
0x479e27393458855d:0x8c69a8933a2cd1d,Cataleya 2.0 Tapas Bar & Lounge,84028,,4.8,45,Restaurant,48.5358298,12.1503525,39,Gewerbepark Nürnberg-Feucht,false,,,,,,,https://www.google.com/maps/place/Cataleya+2.0+Tapas+Bar+%26+Lounge/data=!4m7!3m6!1s0x479e27393458855d:0x8c69a8933a2cd1d!8m2!3d48.5358298!4d12.1503525!16s%2Fg%2F11tcjtmdl8!19sChIJXYVYNDknnkcRHc2iM4maxgg?authuser=0&hl=de&rclk=1,2026-05-13T20:05:23Z,active,success,
0x479e260b3f9d88a9:0x671c995f91845892,China Thai Vietnam,84028,,4.1,40,Asiatisch,48.540754,12.1504159,39,Gewerbepark Nürnberg-Feucht,false,,,,,,,https://www.google.com/maps/place/China+Thai+Vietnam/data=!4m7!3m6!1s0x479e260b3f9d88a9:0x671c995f91845892!8m2!3d48.540754!4d12.1504159!16s%2Fg%2F1hc1t7_6m!19sChIJqYidPwsmnkcRkliEkV-ZHGc?authuser=0&hl=de&rclk=1,2026-05-13T20:18:24Z,active,success,
0x479e2673e0700a87:0x25d9cc7e4819ff82,Chocolat,84028,,4.3,1028,Restaurant,48.5346835,12.1509503,39,Gewerbepark Nürnberg-Feucht,false,,,,,,,https://www.google.com/maps/place/Chocolat/data=!4m7!3m6!1s0x479e2673e0700a87:0x25d9cc7e4819ff82!8m2!3d48.5346835!4d12.1509503!16s%2Fg%2F1tdr28yl!19sChIJhwpw4HMmnkcRgv8ZSH7M2SU?authuser=0&hl=de&rclk=1,2026-05-13T20:03:22Z,active,success,
0x479e27002af1a0f9:0xf9abf4caca1a4c27,Coopers Landshut,84028,,4.7,75,Café / Konditorei,48.5368731,12.154457,39,Gewerbepark Nürnberg-Feucht,false,,,,,,,https://www.google.com/maps/place/Coopers+Landshut/data=!4m7!3m6!1s0x479e27002af1a0f9:0xf9abf4caca1a4c27!8m2!3d48.5368731!4d12.154457!16s%2Fg%2F11zjqzh_xr!19sChIJ-aDxKgAnnkcRJ0waysr0q_k?authuser=0&hl=de&rclk=1,2026-05-13T20:02:27Z,active,success,
0x479e25080f630e13:0x1bda40178fe6e4ca,DA ARMANDO PIZZA - Erste neapolitanische Pizza in Landshut,84028,,4.9,207,Pizzeria,48.5598401,12.1381677,39,Gewerbepark Nürnberg-Feucht,false,,,,,,,https://www.google.com/maps/place/DA+ARMANDO+PIZZA+-+Erste+neapolitanische+Pizza+in+Landshut/data=!4m7!3m6!1s0x479e25080f630e13:0x1bda40178fe6e4ca!8m2!3d48.5598401!4d12.1381677!16s%2Fg%2F11qbj4ddsd!19sChIJEw5jDwglnkcRyuTmjxdA2hs?authuser=0&hl=de&rclk=1,2026-05-13T20:20:43Z,active,success,
0x479e27856cdcbad3:0x990add61047b623f,Dejavu Lounge,84028,,4.1,181,Restaurant,48.5355598,12.153078,39,Gewerbepark Nürnberg-Feucht,false,,,,,,,https://www.google.com/maps/place/Dejavu+Lounge/data=!4m7!3m6!1s0x479e27856cdcbad3:0x990add61047b623f!8m2!3d48.5355598!4d12.153078!16s%2Fg%2F11tsh8rn9d!19sChIJ07rcbIUnnkcRP2J7BGHdCpk?authuser=0&hl=de&rclk=1,2026-05-13T20:21:56Z,active,success,
0x479e25e8009144e7:0x787bd788c700427d,Der Pizza Service Landshut,84028,,2.6,182,Pizzeria,48.5417658,12.1321682,39,Gewerbepark Nürnberg-Feucht,false,,,,,,,https://www.google.com/maps/place/Der+Pizza+Service+Landshut/data=!4m7!3m6!1s0x479e25e8009144e7:0x787bd788c700427d!8m2!3d48.5417658!4d12.1321682!16s%2Fg%2F1hc4tq709!19sChIJ50SRAOglnkcRfUIAx4jXe3g?authuser=0&hl=de&rclk=1,2026-05-13T20:18:55Z,active,success,
0x479e25e1ed995969:0xa2f52cd20cf64a82,Derviş Baba Döner Laden & Bar,84028,,4.4,158,Restaurant,48.5448391,12.1457339,39,Gewerbepark Nürnberg-Feucht,false,,,,,,,https://www.google.com/maps/place/Dervi%C5%9F+Baba+D%C3%B6ner+Laden+%26+Bar/data=!4m7!3m6!1s0x479e25e1ed995969:0xa2f52cd20cf64a82!8m2!3d48.5448391!4d12.1457339!16s%2Fg%2F11t5x8l0bv!19sChIJaVmZ7eElnkcRgkr2DNIs9aI?authuser=0&hl=de&rclk=1,2026-05-13T20:16:22Z,active,success,
0x479e267229eadae9:0x23648df704c858be,Donna Pina Vino Bruschetta & Piadina,84028,,4.5,76,Restaurant,48.5343275,12.1532676,39,Gewerbepark Nürnberg-Feucht,false,,,,,,,https://www.google.com/maps/place/Donna+Pina+Vino+Bruschetta+%26+Piadina/data=!4m7!3m6!1s0x479e267229eadae9:0x23648df704c858be!8m2!3d48.5343275!4d12.1532676!16s%2Fg%2F1thsdxmh!19sChIJ6drqKXImnkcRvljIBPeNZCM?authuser=0&hl=de&rclk=1,2026-05-13T20:09:43Z,active,success,
0x479e2673f8b7f947:0x2948920bbf01060f,Döner am Landtor,84028,,4.6,170,Döner / Kebab,48.5350348,12.1496964,39,Gewerbepark Nürnberg-Feucht,false,,,,,,,https://www.google.com/maps/place/D%C3%B6ner+am+Landtor/data=!4m7!3m6!1s0x479e2673f8b7f947:0x2948920bbf01060f!8m2!3d48.5350348!4d12.1496964!16s%2Fg%2F11b66l1wzl!19sChIJR_m3-HMmnkcRDwYBvwuSSCk?authuser=0&hl=de&rclk=1,2026-05-13T20:13:26Z,active,success,
0x479e272cfce38429:0x241bcc56860b6a1e,Eat-Italy-Landshut,84028,,4.5,340,Restaurant,48.5389583,12.1558135,39,Gewerbepark Nürnberg-Feucht,false,,,,,,,https://www.google.com/maps/place/Eat-Italy-Landshut/data=!4m7!3m6!1s0x479e272cfce38429:0x241bcc56860b6a1e!8m2!3d48.5389583!4d12.1558135!16s%2Fg%2F11spkh3dst!19sChIJKYTj_CwnnkcRHmoLhlbMGyQ?authuser=0&hl=de&rclk=1,2026-05-13T20:11:02Z,active,success,
0x479e260e9c194a7b:0x11c48f8b5697f08b,Ein Laden,84028,,3.3,32,Bäckerei,48.5439378,12.1551044,39,Gewerbepark Nürnberg-Feucht,false,,,,,,,https://www.google.com/maps/place/Ein+Laden/data=!4m7!3m6!1s0x479e260e9c194a7b:0x11c48f8b5697f08b!8m2!3d48.5439378!4d12.1551044!16s%2Fg%2F1w6r77xt!19sChIJe0oZnA4mnkcRi_CXVouPxBE?authuser=0&hl=de&rclk=1,2026-05-13T20:26:21Z,active,success,
0x479e26739319ca57:0x80327bb2c67a31f3,Eis Panciera GmbH,84028,,4.4,588,Café / Konditorei,48.53589,12.15113,39,Gewerbepark Nürnberg-Feucht,false,,,,,,,https://www.google.com/maps/place/Eis+Panciera+GmbH/data=!4m7!3m6!1s0x479e26739319ca57:0x80327bb2c67a31f3!8m2!3d48.53589!4d12.15113!16s%2Fg%2F1tqck647!19sChIJV8oZk3MmnkcR8zF6xrJ7MoA?authuser=0&hl=de&rclk=1,2026-05-13T20:08:05Z,active,success,
0x479e26715a2864c1:0xcebba791197775fb,Eiscafé Dolomiti,84028,,4.5,267,Café / Konditorei,48.5343079,12.1503348,39,Gewerbepark Nürnberg-Feucht,false,,,,,,,https://www.google.com/maps/place/Eiscaf%C3%A9+Dolomiti/data=!4m7!3m6!1s0x479e26715a2864c1:0xcebba791197775fb!8m2!3d48.5343079!4d12.1503348!16s%2Fg%2F1q662454d!19sChIJwWQoWnEmnkcR-3V3GZGnu84?authuser=0&hl=de&rclk=1,2026-05-13T20:11:40Z,active,success,
0x479e267125567b67:0x85cabfd564a01150,Eiscafé Florenz,84028,,4.5,346,Café / Konditorei,48.532819,12.149517,39,Gewerbepark Nürnberg-Feucht,false,,,,,,,https://www.google.com/maps/place/Eiscaf%C3%A9+Florenz/data=!4m7!3m6!1s0x479e267125567b67:0x85cabfd564a01150!8m2!3d48.532819!4d12.149517!16s%2Fg%2F11c55rl5mm!19sChIJZ3tWJXEmnkcRUBGgZNW_yoU?authuser=0&hl=de&rclk=1,2026-05-13T20:06:45Z,active,success,
0x479e27c6c017df45:0xbd5bec5c408c520f,Fire Bar,84028,,4.9,217,Bar / Kneipe,48.536503,12.1529021,39,Gewerbepark Nürnberg-Feucht,false,,,,,,,https://www.google.com/maps/place/Fire+Bar/data=!4m7!3m6!1s0x479e27c6c017df45:0xbd5bec5c408c520f!8m2!3d48.536503!4d12.1529021!16s%2Fg%2F11y2b3pzly!19sChIJRd8XwMYnnkcRD1KMQFzsW70?authuser=0&hl=de&rclk=1,2026-05-13T20:09:50Z,active,success,
0x479e272eaa5ccae3:0x3ef88c02226aa2a2,Firmer Bräu,84028,,4.6,503,Restaurant,48.5367923,12.1544013,39,Gewerbepark Nürnberg-Feucht,false,,,,,,,https://www.google.com/maps/place/Firmer+Br%C3%A4u/data=!4m7!3m6!1s0x479e272eaa5ccae3:0x3ef88c02226aa2a2!8m2!3d48.5367923!4d12.1544013!16s%2Fg%2F11sh78hrcs!19sChIJ48pcqi4nnkcRoqJqIgKM-D4?authuser=0&hl=de&rclk=1,2026-05-13T20:01:06Z,active,success,
0x479e273aa45c512d:0xcd44a931b4286586,Foodie's Landshut,84028,,4.1,8,Café / Konditorei,48.5396959,12.1553109,39,Gewerbepark Nürnberg-Feucht,false,,,,,,,https://www.google.com/maps/place/Foodie%27s+Landshut/data=!4m7!3m6!1s0x479e273aa45c512d:0xcd44a931b4286586!8m2!3d48.5396959!4d12.1553109!16s%2Fg%2F11rc04lkw7!19sChIJLVFcpDonnkcRhmUotDGpRM0?authuser=0&hl=de&rclk=1,2026-05-13T20:04:51Z,active,success,
0x479e2771c63e7929:0x5f861677d756fce6,GOOD Ci (Landshut),84028,,4.5,1174,Sushi,48.53886,12.1559873,39,Gewerbepark Nürnberg-Feucht,false,,,,,,,https://www.google.com/maps/place/GOOD+Ci+%28Landshut%29/data=!4m7!3m6!1s0x479e2771c63e7929:0x5f861677d756fce6!8m2!3d48.53886!4d12.1559873!16s%2Fg%2F11h0xyg6sp!19sChIJKXk-xnEnnkcR5vxW13cWhl8?authuser=0&hl=de&rclk=1,2026-05-13T20:11:33Z,active,success,
0x479e26763ce3c14b:0x44ecc9eb1a87c283,Gabelsbergerhof Landshut,84028,,4.7,279,Restaurant,48.5339968,12.1434958,39,Gewerbepark Nürnberg-Feucht,true,6,10,8,2.79,4.597,Sechs bis zehn Bewertungen aufgrund von Beschwerden wegen Diffamierung entfernt.,https://www.google.com/maps/place/Gabelsbergerhof+Landshut/data=!4m7!3m6!1s0x479e26763ce3c14b:0x44ecc9eb1a87c283!8m2!3d48.5339968!4d12.1434958!16s%2Fg%2F1wc46zbw!19sChIJS8HjPHYmnkcRg8KHGuvJ7EQ?authuser=0&hl=de&rclk=1,2026-05-13T20:20:35Z,active,success,
0x479e25d8d9443787:0xef4391e805d7ea8b,Gasthaus Zur Schwimmschule,84028,,4.5,290,Restaurant,48.5347915,12.1398035,39,Gewerbepark Nürnberg-Feucht,false,,,,,,,https://www.google.com/maps/place/Gasthaus+Zur+Schwimmschule/data=!4m7!3m6!1s0x479e25d8d9443787:0xef4391e805d7ea8b!8m2!3d48.5347915!4d12.1398035!16s%2Fg%2F1tvykrq9!19sChIJhzdE2dglnkcRi-rXBeiRQ-8?authuser=0&hl=de&rclk=1,2026-05-13T20:18:32Z,active,success,
0x479e2672fd4ad0d1:0x8c11a0eef3b3e0c7,Gasthaus zum Freischütz,84028,,4.7,440,Restaurant,48.53738,12.15414,39,Gewerbepark Nürnberg-Feucht,true,51,100,75.5,14.65,4.158,51 bis 100 Bewertungen aufgrund von Beschwerden wegen Diffamierung entfernt.,https://www.google.com/maps/place/Gasthaus+zum+Freisch%C3%BCtz/data=!4m7!3m6!1s0x479e2672fd4ad0d1:0x8c11a0eef3b3e0c7!8m2!3d48.53738!4d12.15414!16s%2Fg%2F11bwf79xt3!19sChIJ0dBK_XImnkcRx-Cz8-6gEYw?authuser=0&hl=de&rclk=1,2026-05-13T20:02:08Z,active,success,
0x479e260b3f9d88a9:0xb331801ad2901d2b,GelatOK,84028,,4.8,586,Café / Konditorei,48.5408541,12.1502841,39,Gewerbepark Nürnberg-Feucht,false,,,,,,,https://www.google.com/maps/place/GelatOK/data=!4m7!3m6!1s0x479e260b3f9d88a9:0xb331801ad2901d2b!8m2!3d48.5408541!4d12.1502841!16s%2Fg%2F1tf6_y7r!19sChIJqYidPwsmnkcRKx2Q0hqAMbM?authuser=0&hl=de&rclk=1,2026-05-13T20:07:38Z,active,success,
0x479e25eee7d8999d:0x5dfc4c09c677d936,Grillpoint 36,84028,,4.8,1105,Restaurant,48.5474117,12.1295426,39,Gewerbepark Nürnberg-Feucht,true,101,150,125.5,10.2,4.412,101 bis 150 Bewertungen aufgrund von Beschwerden wegen Diffamierung entfernt.,https://www.google.com/maps/place/Grillpoint+36/data=!4m7!3m6!1s0x479e25eee7d8999d:0x5dfc4c09c677d936!8m2!3d48.5474117!4d12.1295426!16s%2Fg%2F11hb3t6lg5!19sChIJnZnY5-4lnkcRNtl3xglM_F0?authuser=0&hl=de&rclk=1,2026-05-13T20:14:20Z,active,success,
0x479e2675ed6fd04b:0x4695e9ff51948a8b,Gschaider GmbH Bäckerei-Feinbäckerei,84028,,4.8,407,Bäckerei,48.5364159,12.1444163,39,Gewerbepark Nürnberg-Feucht,false,,,,,,,https://www.google.com/maps/place/Gschaider+GmbH+B%C3%A4ckerei-Feinb%C3%A4ckerei/data=!4m7!3m6!1s0x479e2675ed6fd04b:0x4695e9ff51948a8b!8m2!3d48.5364159!4d12.1444163!16s%2Fg%2F1vp72s03!19sChIJS9Bv7XUmnkcRi4qUUf_plUY?authuser=0&hl=de&rclk=1,2026-05-13T20:23:38Z,active,success,
0x479e267320a3d00f:0x22ea4ac766a93235,HANS IM GLÜCK - LANDSHUT Herrngasse,84028,,4.4,2307,Burger,48.5384646,12.1543084,39,Gewerbepark Nürnberg-Feucht,false,,,,,,,https://www.google.com/maps/place/HANS+IM+GL%C3%9CCK+-+LANDSHUT+Herrngasse/data=!4m7!3m6!1s0x479e267320a3d00f:0x22ea4ac766a93235!8m2!3d48.5384646!4d12.1543084!16s%2Fg%2F11bw44mhtt!19sChIJD9CjIHMmnkcRNTKpZsdK6iI?authuser=0&hl=de&rclk=1,2026-05-13T20:12:29Z,active,success,
0x479e267285caef29:0x1f386cbca6a967cc,HQ - Grill | Wok | Sushi Landshut,84028,,4.8,369,Asiatisch,48.5368593,12.1565658,39,Gewerbepark Nürnberg-Feucht,true,2,5,3.5,0.94,4.764,Zwei bis fünf Bewertungen aufgrund von Beschwerden wegen Diffamierung entfernt.,https://www.google.com/maps/place/HQ+-+Grill+%7C+Wok+%7C+Sushi+Landshut/data=!4m7!3m6!1s0x479e267285caef29:0x1f386cbca6a967cc!8m2!3d48.5368593!4d12.1565658!16s%2Fg%2F1hc5t3sj3!19sChIJKe_KhXImnkcRzGepprxsOB8?authuser=0&hl=de&rclk=1,2026-05-13T20:00:59Z,active,success,
0x479e25813406968d:0x383f391e9652dc02,Habibi orientalische Küche,84028,,4.8,129,Imbiss,48.5432185,12.1448378,39,Gewerbepark Nürnberg-Feucht,true,21,50,35.5,21.58,3.98,21 bis 50 Bewertungen aufgrund von Beschwerden wegen Diffamierung entfernt.,https://www.google.com/maps/place/Habibi+orientalische+K%C3%BCche/data=!4m7!3m6!1s0x479e25813406968d:0x383f391e9652dc02!8m2!3d48.5432185!4d12.1448378!16s%2Fg%2F11jx6q_vcp!19sChIJjZYGNIElnkcRAtxSlh45Pzg?authuser=0&hl=de&rclk=1,2026-05-13T20:16:48Z,active,success,
0x479e255a9a272907:0xe6c9b1a4b573a10a,Haus des Döners,84028,,4.9,109,Döner / Kebab,48.5389298,12.095145,39,Gewerbepark Nürnberg-Feucht,true,2,5,3.5,3.11,4.779,Zwei bis fünf Bewertungen aufgrund von Beschwerden wegen Diffamierung entfernt.,https://www.google.com/maps/place/Haus+des+D%C3%B6ners/data=!4m7!3m6!1s0x479e255a9a272907:0xe6c9b1a4b573a10a!8m2!3d48.5389298!4d12.095145!16s%2Fg%2F11z4796lch!19sChIJByknmlolnkcRCqFztaSxyeY?authuser=0&hl=de&rclk=1,2026-05-13T20:17:57Z,active,success,
0x479e26732545cef3:0xa9e38f4c42c48273,Heilig-Geist-Stüberl Gaststätte,84028,,4.7,1956,Restaurant,48.5386167,12.1537374,39,Gewerbepark Nürnberg-Feucht,false,,,,,,,https://www.google.com/maps/place/Heilig-Geist-St%C3%BCberl+Gastst%C3%A4tte/data=!4m7!3m6!1s0x479e26732545cef3:0xa9e38f4c42c48273!8m2!3d48.5386167!4d12.1537374!16s%2Fg%2F1ptvtxf75!19sChIJ885FJXMmnkcRc4LEQkyP46k?authuser=0&hl=de&rclk=1,2026-05-13T20:00:46Z,active,success,
0x479e25f9b6b41fb9:0x6c41e89d111a4998,Hertel Hähnchen Food-Truck,84028,,4.3,6,Imbiss,48.5504745,12.126767,39,Gewerbepark Nürnberg-Feucht,false,,,,,,,https://www.google.com/maps/place/Hertel+H%C3%A4hnchen+Food-Truck/data=!4m7!3m6!1s0x479e25f9b6b41fb9:0x6c41e89d111a4998!8m2!3d48.5504745!4d12.126767!16s%2Fg%2F11sw2v9985!19sChIJuR-0tvklnkcRmEkaEZ3oQWw?authuser=0&hl=de&rclk=1,2026-05-13T20:16:35Z,active,success,
0x479e2673e888baf9:0x38a938a0d1acd4a9,Hesel Georg's Bratwurststand,84028,,4.9,20,Imbiss,48.5351972,12.1511709,39,Gewerbepark Nürnberg-Feucht,false,,,,,,,https://www.google.com/maps/place/Hesel+Georg%27s+Bratwurststand/data=!4m7!3m6!1s0x479e2673e888baf9:0x38a938a0d1acd4a9!8m2!3d48.5351972!4d12.1511709!16s%2Fg%2F11fz7klw79!19sChIJ-bqI6HMmnkcRqdSs0aA4qTg?authuser=0&hl=de&rclk=1,2026-05-13T20:11:18Z,active,success,
0x479e260cafb38e15:0x653f12ce9cff213f,Himmel-Landshut GmbH,84028,,4.7,485,Hotel,48.5399457,12.1524953,39,Gewerbepark Nürnberg-Feucht,true,51,100,75.5,13.47,4.202,51 bis 100 Bewertungen aufgrund von Beschwerden wegen Diffamierung entfernt.,https://www.google.com/maps/place/Himmel-Landshut+GmbH/data=!4m7!3m6!1s0x479e260cafb38e15:0x653f12ce9cff213f!8m2!3d48.5399457!4d12.1524953!16s%2Fg%2F1wbrws61!19sChIJFY6zrwwmnkcRPyH_nM4SP2U?authuser=0&hl=de&rclk=1,2026-05-13T20:03:42Z,active,success,
0x479e26679db7d6ef:0x744326a1b5dc9458,Hofberg Café,84028,,4.5,317,Café / Konditorei,48.5256044,12.1646259,39,Gewerbepark Nürnberg-Feucht,false,,,,,,,https://www.google.com/maps/place/Hofberg+Caf%C3%A9/data=!4m7!3m6!1s0x479e26679db7d6ef:0x744326a1b5dc9458!8m2!3d48.5256044!4d12.1646259!16s%2Fg%2F11g8cqvl_1!19sChIJ79a3nWcmnkcRWJTctaEmQ3Q?authuser=0&hl=de&rclk=1,2026-05-13T20:04:37Z,active,success,
0x479e261672c220cd:0x983675883f14b2ea,Hot Wok,84028,,2.2,37,Imbiss,48.5429978,12.171599,39,Gewerbepark Nürnberg-Feucht,false,,,,,,,https://www.google.com/maps/place/Hot+Wok/data=!4m7!3m6!1s0x479e261672c220cd:0x983675883f14b2ea!8m2!3d48.5429978!4d12.171599!16s%2Fg%2F1ptxkl0yp!19sChIJzSDCchYmnkcR6rIUP4h1Npg?authuser=0&hl=de&rclk=1,2026-05-13T20:19:32Z,active,success,
0x479e25dfd897f8cd:0x93ba32ae7c8c8396,Hotel Park Cafe Landshut,84028,,4.3,73,Hotel,48.5405556,12.1438889,39,Gewerbepark Nürnberg-Feucht,false,,,,,,,https://www.google.com/maps/place/Hotel+Park+Cafe+Landshut/data=!4m10!3m9!1s0x479e25dfd897f8cd:0x93ba32ae7c8c8396!5m2!4m1!1i2!8m2!3d48.5405556!4d12.1438889!16s%2Fg%2F1tfrqxgy!19sChIJzfiX2N8lnkcRloOMfK4yupM?authuser=0&hl=de&rclk=1,2026-05-13T20:05:31Z,active,success,
0x479e27612ac882ff:0x1cc7c480971d5172,Hotpom Landshut,84028,,4.7,145,Restaurant,48.5382262,12.1545388,39,Gewerbepark Nürnberg-Feucht,false,,,,,,,https://www.google.com/maps/place/Hotpom+Landshut/data=!4m7!3m6!1s0x479e27612ac882ff:0x1cc7c480971d5172!8m2!3d48.5382262!4d12.1545388!16s%2Fg%2F11sn46vvg9!19sChIJ_4LIKmEnnkcRclEdl4DExxw?authuser=0&hl=de&rclk=1,2026-05-13T20:10:24Z,active,success,
0x479e2672f98756e9:0x66b7f681d64c48a2,"Humidor Fachgeschäft für Kaffee, Zigarren, Pfeifen, Whisk(e)y, Rum, Gin & more",84028,,4.8,196,Sonstiges,48.5372173,12.15454,39,Gewerbepark Nürnberg-Feucht,false,,,,,,,"https://www.google.com/maps/place/Humidor+Fachgesch%C3%A4ft+f%C3%BCr+Kaffee,+Zigarren,+Pfeifen,+Whisk%28e%29y,+Rum,+Gin+%26+more/data=!4m7!3m6!1s0x479e2672f98756e9:0x66b7f681d64c48a2!8m2!3d48.5372173!4d12.15454!16s%2Fg%2F1tdkfmrz!19sChIJ6VaH-XImnkcRokhM1oH2t2Y?authuser=0&hl=de&rclk=1",2026-05-13T20:09:13Z,active,success,
0x479e272b7d4343dd:0x4820ed40be9923ed,Il Padrino,84028,,4.7,622,Restaurant,48.5360541,12.14953,39,Gewerbepark Nürnberg-Feucht,true,2,5,3.5,0.56,4.679,Zwei bis fünf Bewertungen aufgrund von Beschwerden wegen Diffamierung entfernt.,https://www.google.com/maps/place/Il+Padrino/data=!4m7!3m6!1s0x479e272b7d4343dd:0x4820ed40be9923ed!8m2!3d48.5360541!4d12.14953!16s%2Fg%2F11hyfyc03x!19sChIJ3UNDfSsnnkcR7SOZvkDtIEg?authuser=0&hl=de&rclk=1,2026-05-13T20:02:00Z,active,success,
0x479e2599f4876045:0x8c90b9538cf699c7,Imbiss Lindenthaler,84028,,4.6,148,Imbiss,48.5490093,12.1070499,39,Gewerbepark Nürnberg-Feucht,false,,,,,,,https://www.google.com/maps/place/Imbiss+Lindenthaler/data=!4m7!3m6!1s0x479e2599f4876045:0x8c90b9538cf699c7!8m2!3d48.5490093!4d12.1070499!16s%2Fg%2F11bw77w45r!19sChIJRWCH9JklnkcRx5n2jFO5kIw?authuser=0&hl=de&rclk=1,2026-05-13T20:18:48Z,active,success,
0x479e2667c9b77d27:0xcb9cc59f8b03ea14,Imbiss und Schaustellerbetrieb Widmann,84028,,5,4,Imbiss,48.5269523,12.1635769,39,Gewerbepark Nürnberg-Feucht,false,,,,,,,https://www.google.com/maps/place/Imbiss+und+Schaustellerbetrieb+Widmann/data=!4m7!3m6!1s0x479e2667c9b77d27:0xcb9cc59f8b03ea14!8m2!3d48.5269523!4d12.1635769!16s%2Fg%2F11b6dqckgd!19sChIJJ323yWcmnkcRFOoDi5_FnMs?authuser=0&hl=de&rclk=1,2026-05-13T20:16:55Z,active,success,
0x479e26166d5530a3:0x3b5d772cdc4b4c6,Imbiß Metzger Mayer,84028,,4.1,45,Lebensmittel,48.5429884,12.1716204,39,Gewerbepark Nürnberg-Feucht,false,,,,,,,https://www.google.com/maps/place/Imbi%C3%9F+Metzger+Mayer/data=!4m7!3m6!1s0x479e26166d5530a3:0x3b5d772cdc4b4c6!8m2!3d48.5429884!4d12.1716204!16s%2Fg%2F11h7n7bfsq!19sChIJozBVbRYmnkcRxrTEzXLXtQM?authuser=0&hl=de&rclk=1,2026-05-13T20:17:17Z,active,success,
0x479e2612c8fea111:0x544165fa5dd55945,JustizCafé am Landgericht,84028,,5,1,Restaurant,48.5391387,12.1601356,39,Gewerbepark Nürnberg-Feucht,false,,,,,,,https://www.google.com/maps/place/JustizCaf%C3%A9+am+Landgericht/data=!4m7!3m6!1s0x479e2612c8fea111:0x544165fa5dd55945!8m2!3d48.5391387!4d12.1601356!16s%2Fg%2F1hdz3swg7!19sChIJEaH-yBImnkcRRVnVXfplQVQ?authuser=0&hl=de&rclk=1,2026-05-13T20:08:32Z,active,success,
0x479e258d7b3faf0d:0x929dabd72e64fa19,Jörg’s Kuchenwelt,84028,,4.6,51,Café / Konditorei,48.5533773,12.1214346,39,Gewerbepark Nürnberg-Feucht,false,,,,,,,https://www.google.com/maps/place/J%C3%B6rg%E2%80%99s+Kuchenwelt/data=!4m7!3m6!1s0x479e258d7b3faf0d:0x929dabd72e64fa19!8m2!3d48.5533773!4d12.1214346!16s%2Fg%2F11f2b4cx4y!19sChIJDa8_e40lnkcRGfpkLternZI?authuser=0&hl=de&rclk=1,2026-05-13T20:26:40Z,active,success,
0x479e27651ea7b6a3:0x686498e309fe412f,KP Latino,84028,,4.9,312,Restaurant,48.5403642,12.1504886,39,Gewerbepark Nürnberg-Feucht,false,,,,,,,https://www.google.com/maps/place/KP+Latino/data=!4m7!3m6!1s0x479e27651ea7b6a3:0x686498e309fe412f!8m2!3d48.5403642!4d12.1504886!16s%2Fg%2F11vd7dfxst!19sChIJo7anHmUnnkcRL0H-CeOYZGg?authuser=0&hl=de&rclk=1,2026-05-13T20:07:44Z,active,success,
0x479e27bed6e3cba3:0xce1f187d211514eb,Karls Bar Landshut,84028,,4.7,62,Bar / Kneipe,48.5358478,12.1501316,39,Gewerbepark Nürnberg-Feucht,false,,,,,,,https://www.google.com/maps/place/Karls+Bar+Landshut/data=!4m7!3m6!1s0x479e27bed6e3cba3:0xce1f187d211514eb!8m2!3d48.5358478!4d12.1501316!16s%2Fg%2F11sf542l8r!19sChIJo8vj1r4nnkcR6xQVIX0YH84?authuser=0&hl=de&rclk=1,2026-05-13T20:09:06Z,active,success,
0x479e25006b3a6193:0x849476b90beaef43,Kartuli - Georgische Spezialitäten,84028,,4.9,110,Restaurant,48.54148,12.14071,39,Gewerbepark Nürnberg-Feucht,false,,,,,,,https://www.google.com/maps/place/Kartuli+-+Georgische+Spezialit%C3%A4ten/data=!4m7!3m6!1s0x479e25006b3a6193:0x849476b90beaef43!8m2!3d48.54148!4d12.14071!16s%2Fg%2F11xlknss7c!19sChIJk2E6awAlnkcRQ-_qC7l2lIQ?authuser=0&hl=de&rclk=1,2026-05-13T20:16:03Z,active,success,
0x479e270c40e694a1:0xf435db00879db339,Kastanienhof Restaurant und Biergarten zu verpachten,84028,,4.8,114,Restaurant,48.5450757,12.1723741,39,Gewerbepark Nürnberg-Feucht,false,,,,,,,https://www.google.com/maps/place/Kastanienhof+Restaurant+und+Biergarten+zu+verpachten/data=!4m7!3m6!1s0x479e270c40e694a1:0xf435db00879db339!8m2!3d48.5450757!4d12.1723741!16s%2Fg%2F11s88r460r!19sChIJoZTmQAwnnkcRObOdhwDbNfQ?authuser=0&hl=de&rclk=1,2026-05-13T20:12:51Z,temporarily_closed,success,
0x479e299793075a43:0x3a904dacb1ef4ad5,Koplay Imbiss,84028,,4.8,100,Döner / Kebab,48.565793,12.1688401,39,Gewerbepark Nürnberg-Feucht,false,,,,,,,https://www.google.com/maps/place/Koplay+Imbiss/data=!4m7!3m6!1s0x479e299793075a43:0x3a904dacb1ef4ad5!8m2!3d48.565793!4d12.1688401!16s%2Fg%2F11mv5d0jrc!19sChIJQ1oHk5cpnkcR1UrvsaxNkDo?authuser=0&hl=de&rclk=1,2026-05-13T20:19:25Z,active,success,
0x479e27cb24550275:0x405636538789b65d,Kretzschmar's Backstube,84028,,4.6,56,Bäckerei,48.5237656,12.1434888,39,Gewerbepark Nürnberg-Feucht,false,,,,,,,https://www.google.com/maps/place/Kretzschmar%27s+Backstube/data=!4m7!3m6!1s0x479e27cb24550275:0x405636538789b65d!8m2!3d48.5237656!4d12.1434888!16s%2Fg%2F11j5hmjb4t!19sChIJdQJVJMsnnkcRXbaJh1M2VkA?authuser=0&hl=de&rclk=1,2026-05-13T20:24:45Z,active,success,
0x479e27d2189e1de7:0x6e666fec00c2e946,L'Osteria Landshut Altstadt,84028,,4.3,1360,Restaurant,48.5339831,12.1507386,39,Gewerbepark Nürnberg-Feucht,true,1,1,1,0.07,4.298,Eine Bewertung aufgrund einer Beschwerde wegen Diffamierung entfernt.,https://www.google.com/maps/place/L%27Osteria+Landshut+Altstadt/data=!4m7!3m6!1s0x479e27d2189e1de7:0x6e666fec00c2e946!8m2!3d48.5339831!4d12.1507386!16s%2Fg%2F11f9y50280!19sChIJ5x2eGNInnkcRRunCAOxvZm4?authuser=0&hl=de&rclk=1,2026-05-13T20:00:34Z,active,success,
0x479e27074217b553:0x44f28f6867ef2b33,La Anatolia - Südländische Küche,84028,,4.7,657,Döner / Kebab,48.5378303,12.1527275,39,Gewerbepark Nürnberg-Feucht,true,6,10,8,1.2,4.655,Sechs bis zehn Bewertungen aufgrund von Beschwerden wegen Diffamierung entfernt.,https://www.google.com/maps/place/La+Anatolia+-+S%C3%BCdl%C3%A4ndische+K%C3%BCche/data=!4m7!3m6!1s0x479e27074217b553:0x44f28f6867ef2b33!8m2!3d48.5378303!4d12.1527275!16s%2Fg%2F11j37c3fv6!19sChIJU7UXQgcnnkcRMyvvZ2iP8kQ?authuser=0&hl=de&rclk=1,2026-05-13T20:06:39Z,active,success,
0x479e271bc6fe95ad:0xac22ad49d41ab044,La Barista,84028,,4.9,82,Café / Konditorei,48.5367551,12.1530086,39,Gewerbepark Nürnberg-Feucht,true,2,5,3.5,4.09,4.74,Zwei bis fünf Bewertungen aufgrund von Beschwerden wegen Diffamierung entfernt.,https://www.google.com/maps/place/La+Barista/data=!4m7!3m6!1s0x479e271bc6fe95ad:0xac22ad49d41ab044!8m2!3d48.5367551!4d12.1530086!16s%2Fg%2F11lts7hc1p!19sChIJrZX-xhsnnkcRRLAa1EmtIqw?authuser=0&hl=de&rclk=1,2026-05-13T20:03:01Z,active,success,
0x479e27ef4a4dfd65:0x4d60cfdc3b868a2b,La Gioia,84028,,4.5,8,Imbiss,48.5385164,12.1695845,39,Gewerbepark Nürnberg-Feucht,false,,,,,,,https://www.google.com/maps/place/La+Gioia/data=!4m7!3m6!1s0x479e27ef4a4dfd65:0x4d60cfdc3b868a2b!8m2!3d48.5385164!4d12.1695845!16s%2Fg%2F11s4yctxj7!19sChIJZf1NSu8nnkcRK4qGO9zPYE0?authuser=0&hl=de&rclk=1,2026-05-13T20:13:37Z,active,success,
0x479e267140a53765:0x78028d8fab7abe70,La Osteria Landshut,84028,,4.5,1738,Restaurant,48.5335279,12.1511,39,Gewerbepark Nürnberg-Feucht,true,151,200,175.5,9.17,4.179,151 bis 200 Bewertungen aufgrund von Beschwerden wegen Diffamierung entfernt.,https://www.google.com/maps/place/La+Osteria+Landshut/data=!4m7!3m6!1s0x479e267140a53765:0x78028d8fab7abe70!8m2!3d48.5335279!4d12.1511!16s%2Fg%2F12vs59pz8!19sChIJZTelQHEmnkcRcL56q4-NAng?authuser=0&hl=de&rclk=1,2026-05-13T20:09:20Z,active,success,
0x479e27c7e42df4c3:0x595e219e46fe84c,Le Petit Café de Monsieur S.,84028,,4.9,260,Café / Konditorei,48.5351207,12.1525696,39,Gewerbepark Nürnberg-Feucht,false,,,,,,,https://www.google.com/maps/place/Le+Petit+Caf%C3%A9+de+Monsieur+S./data=!4m7!3m6!1s0x479e27c7e42df4c3:0x595e219e46fe84c!8m2!3d48.5351207!4d12.1525696!16s%2Fg%2F11kfczld5l!19sChIJw_Qt5McnnkcRTOhv5BnilQU?authuser=0&hl=de&rclk=1,2026-05-13T20:02:34Z,active,success,
0x479e2671793d4d59:0xb5fbadbaf6b22d0,Lebenshilfe Landshut e.V. - Café am Dom,84028,,4.8,170,Café / Konditorei,48.5340098,12.1523421,39,Gewerbepark Nürnberg-Feucht,false,,,,,,,https://www.google.com/maps/place/Lebenshilfe+Landshut+e.V.+-+Caf%C3%A9+am+Dom/data=!4m7!3m6!1s0x479e2671793d4d59:0xb5fbadbaf6b22d0!8m2!3d48.5340098!4d12.1523421!16s%2Fg%2F11b76k728_!19sChIJWU09eXEmnkcR0CJrr9u6Xws?authuser=0&hl=de&rclk=1,2026-05-13T20:03:28Z,active,success,
0x479e26741aa50881:0x34dfd29160702869,Literaturcafé,84028,,3.8,131,Café / Konditorei,48.5358865,12.1494531,39,Gewerbepark Nürnberg-Feucht,false,,,,,,,https://www.google.com/maps/place/Literaturcaf%C3%A9/data=!4m7!3m6!1s0x479e26741aa50881:0x34dfd29160702869!8m2!3d48.5358865!4d12.1494531!16s%2Fg%2F1tdfm7n9!19sChIJgQilGnQmnkcRaShwYJHS3zQ?authuser=0&hl=de&rclk=1,2026-05-13T20:04:59Z,active,success,
0x479e27f15973c10b:0x334b95dd060823e2,Little Avlija Brzovic - Balkan-Spezialitäten,84028,,4.9,311,Restaurant,48.5374563,12.1515634,39,Gewerbepark Nürnberg-Feucht,true,11,20,15.5,4.75,4.715,11 bis 20 Bewertungen aufgrund von Beschwerden wegen Diffamierung entfernt.,https://www.google.com/maps/place/Little+Avlija+Brzovic+-+Balkan-Spezialit%C3%A4ten/data=!4m7!3m6!1s0x479e27f15973c10b:0x334b95dd060823e2!8m2!3d48.5374563!4d12.1515634!16s%2Fg%2F11smg_pj99!19sChIJC8FzWfEnnkcR4iMIBt2VSzM?authuser=0&hl=de&rclk=1,2026-05-13T20:01:13Z,active,success,
0x479e27002a751009:0xdeefeb2dfb19d321,Loco Chicken Landshut,84028,,2.5,43,Imbiss,48.5429884,12.1716204,39,Gewerbepark Nürnberg-Feucht,false,,,,,,,https://www.google.com/maps/place/Loco+Chicken+Landshut/data=!4m7!3m6!1s0x479e27002a751009:0xdeefeb2dfb19d321!8m2!3d48.5429884!4d12.1716204!16s%2Fg%2F11ltmc8rzj!19sChIJCRB1KgAnnkcRIdMZ-y3r794?authuser=0&hl=de&rclk=1,2026-05-13T20:22:57Z,active,success,
0x479e2672caf940d1:0x503cc74ad8488ab7,Long Anh Asia Imbiss,84028,,2.9,76,Imbiss,48.5393901,12.1560065,39,Gewerbepark Nürnberg-Feucht,false,,,,,,,https://www.google.com/maps/place/Long+Anh+Asia+Imbiss/data=!4m7!3m6!1s0x479e2672caf940d1:0x503cc74ad8488ab7!8m2!3d48.5393901!4d12.1560065!16s%2Fg%2F1vqtfsk_!19sChIJ0UD5ynImnkcRt4pI2ErHPFA?authuser=0&hl=de&rclk=1,2026-05-13T20:13:18Z,active,success,
0x410966f07f8c8015:0x50996b5c0abfbc50,Lothar Kretzschmar,84028,,4.6,34,Bäckerei,48.5669284,12.2056761,39,Gewerbepark Nürnberg-Feucht,false,,,,,,,https://www.google.com/maps/place/Lothar+Kretzschmar/data=!4m7!3m6!1s0x410966f07f8c8015:0x50996b5c0abfbc50!8m2!3d48.5669284!4d12.2056761!16s%2Fg%2F1tct7q81!19sChIJFYCMf_BmCUERULy_ClxrmVA?authuser=0&hl=de&rclk=1,2026-05-13T20:28:07Z,active,success,
0x479e2673ed7d6c6d:0x18c4fc7360073398,Ludwig Stocker Hofpfisterei GmbH,84028,,3.4,27,Bäckerei,48.53571,12.1508,39,Gewerbepark Nürnberg-Feucht,false,,,,,,,https://www.google.com/maps/place/Ludwig+Stocker+Hofpfisterei+GmbH/data=!4m7!3m6!1s0x479e2673ed7d6c6d:0x18c4fc7360073398!8m2!3d48.53571!4d12.1508!16s%2Fg%2F1tdfb2pt!19sChIJbWx97XMmnkcRmDMHYHP8xBg?authuser=0&hl=de&rclk=1,2026-05-13T20:26:33Z,active,success,
0x479e27006f3471a5:0x111b9d6ba3eee724,Lê la HANOI - Coffee Atelier Landshut,84028,,5,43,Café / Konditorei,48.537883,12.1526061,39,Gewerbepark Nürnberg-Feucht,false,,,,,,,https://www.google.com/maps/place/L%C3%AA+la+HANOI+-+Coffee+Atelier+Landshut/data=!4m7!3m6!1s0x479e27006f3471a5:0x111b9d6ba3eee724!8m2!3d48.537883!4d12.1526061!16s%2Fg%2F11z0h01r7q!19sChIJpXE0bwAnnkcRJOfuo2udGxE?authuser=0&hl=de&rclk=1,2026-05-13T20:01:29Z,active,success,
0x479e278895e4c843:0xd92e181dae1f8253,MILA. | Café Landshut,84028,,4.2,67,Café / Konditorei,48.5355136,12.1517741,39,Gewerbepark Nürnberg-Feucht,false,,,,,,,https://www.google.com/maps/place/MILA.+%7C+Caf%C3%A9+Landshut/data=!4m7!3m6!1s0x479e278895e4c843:0xd92e181dae1f8253!8m2!3d48.5355136!4d12.1517741!16s%2Fg%2F11mdw73frh!19sChIJQ8jklYgnnkcRU4Ifrh0YLtk?authuser=0&hl=de&rclk=1,2026-05-13T20:03:57Z,active,success,
0x479e267381ac2835:0x46bee1462266b9e0,MY LY Wok & Sushi Bar,84028,,4.8,970,Sushi,48.53688,12.15093,39,Gewerbepark Nürnberg-Feucht,true,11,20,15.5,1.57,4.74,11 bis 20 Bewertungen aufgrund von Beschwerden wegen Diffamierung entfernt.,https://www.google.com/maps/place/MY+LY+Wok+%26+Sushi+Bar/data=!4m7!3m6!1s0x479e267381ac2835:0x46bee1462266b9e0!8m2!3d48.53688!4d12.15093!16s%2Fg%2F1v6wn963!19sChIJNSisgXMmnkcR4LlmIkbhvkY?authuser=0&hl=de&rclk=1,2026-05-13T20:18:40Z,active,success,
0x479e26160d343045:0x4d63764b01a54b41,Mama Pizza Landshut,84028,,2.7,208,Pizzeria,48.5431022,12.1720386,39,Gewerbepark Nürnberg-Feucht,false,,,,,,,https://www.google.com/maps/place/Mama+Pizza+Landshut/data=!4m7!3m6!1s0x479e26160d343045:0x4d63764b01a54b41!8m2!3d48.5431022!4d12.1720386!16s%2Fg%2F1tnbk3m3!19sChIJRTA0DRYmnkcRQUulAUt2Y00?authuser=0&hl=de&rclk=1,2026-05-13T20:21:50Z,active,success,
0x479e2722fb5cda2b:0xb1361de660b3fb43,Mama Wok & Happy Bowl Sushi Landshut,84028,,4.3,48,Restaurant,48.5406743,12.1505141,39,Gewerbepark Nürnberg-Feucht,false,,,,,,,https://www.google.com/maps/place/Mama+Wok+%26+Happy+Bowl+Sushi+Landshut/data=!4m7!3m6!1s0x479e2722fb5cda2b:0xb1361de660b3fb43!8m2!3d48.5406743!4d12.1505141!16s%2Fg%2F11rv9mnm0h!19sChIJK9pc-yInnkcRQ_uzYOYdNrE?authuser=0&hl=de&rclk=1,2026-05-13T20:15:55Z,active,success,
0x479e27f673e2ba45:0x3b426af1e4b3c436,Mareis Bäckerei Café,84028,,4,73,Bäckerei,48.5497219,12.1598328,39,Gewerbepark Nürnberg-Feucht,false,,,,,,,https://www.google.com/maps/place/Mareis+B%C3%A4ckerei+Caf%C3%A9/data=!4m7!3m6!1s0x479e27f673e2ba45:0x3b426af1e4b3c436!8m2!3d48.5497219!4d12.1598328!16s%2Fg%2F11r_fpk8nj!19sChIJRbric_YnnkcRNsSz5PFqQjs?authuser=0&hl=de&rclk=1,2026-05-13T20:26:56Z,active,success,
0x479e26739c2f324d:0x63428219d9d898ed,Mareis Bäckerei Café,84028,,4.3,80,Bäckerei,48.5368117,12.1515977,39,Gewerbepark Nürnberg-Feucht,false,,,,,,,https://www.google.com/maps/place/Mareis+B%C3%A4ckerei+Caf%C3%A9/data=!4m7!3m6!1s0x479e26739c2f324d:0x63428219d9d898ed!8m2!3d48.5368117!4d12.1515977!16s%2Fg%2F1tctwk0s!19sChIJTTIvnHMmnkcR7ZjY2RmCQmM?authuser=0&hl=de&rclk=1,2026-05-13T20:05:52Z,active,success,
0x479e271da6f8a253:0x452ca4cd86b3ef71,Mareis Bäckerei Café,84028,,4.5,143,Bäckerei,48.5353777,12.1508015,39,Gewerbepark Nürnberg-Feucht,false,,,,,,,https://www.google.com/maps/place/Mareis+B%C3%A4ckerei+Caf%C3%A9/data=!4m7!3m6!1s0x479e271da6f8a253:0x452ca4cd86b3ef71!8m2!3d48.5353777!4d12.1508015!16s%2Fg%2F11h3__7wp6!19sChIJU6L4ph0nnkcRce-zhs2kLEU?authuser=0&hl=de&rclk=1,2026-05-13T20:06:59Z,active,success,
0x479e279d91353f1f:0x1286c0290805763d,Mareis Bäckerei Café,84028,,4.8,11,Bäckerei,48.5291484,12.1462112,39,Gewerbepark Nürnberg-Feucht,false,,,,,,,https://www.google.com/maps/place/Mareis+B%C3%A4ckerei+Caf%C3%A9/data=!4m7!3m6!1s0x479e279d91353f1f:0x1286c0290805763d!8m2!3d48.5291484!4d12.1462112!16s%2Fg%2F11h3dq6nq5!19sChIJHz81kZ0nnkcRPXYFCCnAhhI?authuser=0&hl=de&rclk=1,2026-05-13T20:24:24Z,active,success,
0x479e25577c6d03bf:0x2c5885bdf2fdd27c,Mareis Bäckerei Café,84028,,4.4,273,Bäckerei,48.5492267,12.1348825,39,Gewerbepark Nürnberg-Feucht,false,,,,,,,https://www.google.com/maps/place/Mareis+B%C3%A4ckerei+Caf%C3%A9/data=!4m7!3m6!1s0x479e25577c6d03bf:0x2c5885bdf2fdd27c!8m2!3d48.5492267!4d12.1348825!16s%2Fg%2F11gqplsvyy!19sChIJvwNtfFclnkcRfNL98r2FWCw?authuser=0&hl=de&rclk=1,2026-05-13T20:25:28Z,active,success,
0x479e26139bc79107:0x55cf04a36402728a,Mareis Bäckerei GmbH,84028,,4.3,24,Bäckerei,48.5351326,12.1493351,39,Gewerbepark Nürnberg-Feucht,false,,,,,,,https://www.google.com/maps/place/Mareis+B%C3%A4ckerei+GmbH/data=!4m7!3m6!1s0x479e26139bc79107:0x55cf04a36402728a!8m2!3d48.5351326!4d12.1493351!16s%2Fg%2F11btlz91ks!19sChIJB5HHmxMmnkcRinICZKMEz1U?authuser=0&hl=de&rclk=1,2026-05-13T20:25:34Z,active,success,
0x479e26733a42f17d:0xff342be4dafa3060,Mera Desh,84028,,4.8,598,Asiatisch,48.5397708,12.1512591,39,Gewerbepark Nürnberg-Feucht,false,,,,,,,https://www.google.com/maps/place/Mera+Desh/data=!4m7!3m6!1s0x479e26733a42f17d:0xff342be4dafa3060!8m2!3d48.5397708!4d12.1512591!16s%2Fg%2F1pzy95ykl!19sChIJffFCOnMmnkcRYDD62uQrNP8?authuser=0&hl=de&rclk=1,2026-05-13T20:08:58Z,active,success,
0x479e260b1e9ea16b:0x5d1f575513c73665,Mg Grill Café Bistro Restaurant,84028,,4.3,351,Imbiss,48.5413384,12.1492936,39,Gewerbepark Nürnberg-Feucht,false,,,,,,,https://www.google.com/maps/place/Mg+Grill+Caf%C3%A9+Bistro+Restaurant/data=!4m7!3m6!1s0x479e260b1e9ea16b:0x5d1f575513c73665!8m2!3d48.5413384!4d12.1492936!16s%2Fg%2F1th5bkkr!19sChIJa6GeHgsmnkcRZTbHE1VXH10?authuser=0&hl=de&rclk=1,2026-05-13T20:14:48Z,active,success,
0x479e2740c1e17267:0xf45c6da6e9a74145,Mike’s Pizza Landshut,84028,,2.7,146,Pizzeria,48.529777,12.1471943,39,Gewerbepark Nürnberg-Feucht,false,,,,,,,https://www.google.com/maps/place/Mike%E2%80%99s+Pizza+Landshut/data=!4m7!3m6!1s0x479e2740c1e17267:0xf45c6da6e9a74145!8m2!3d48.529777!4d12.1471943!16s%2Fg%2F11ng1hrgf7!19sChIJZ3LhwUAnnkcRRUGn6aZtXPQ?authuser=0&hl=de&rclk=1,2026-05-13T20:19:38Z,active,success,
0x479e2786d74ce325:0x94d78520d9482039,Minigolf Stüberl,84028,,4.8,34,Bar / Kneipe,48.5552424,12.1786232,39,Gewerbepark Nürnberg-Feucht,false,,,,,,,https://www.google.com/maps/place/Minigolf+St%C3%BCberl/data=!4m7!3m6!1s0x479e2786d74ce325:0x94d78520d9482039!8m2!3d48.5552424!4d12.1786232!16s%2Fg%2F11vr0xzhv1!19sChIJJeNM14YnnkcROSBI2SCF15Q?authuser=0&hl=de&rclk=1,2026-05-13T20:22:22Z,active,success,
0x479e2672933bb71b:0x34d75b9be165d503,Mitarbeiten Landshut eV,84028,,4.6,9,Café / Konditorei,48.5384133,12.1521379,39,Gewerbepark Nürnberg-Feucht,false,,,,,,,https://www.google.com/maps/place/Mitarbeiten+Landshut+eV/data=!4m7!3m6!1s0x479e2672933bb71b:0x34d75b9be165d503!8m2!3d48.5384133!4d12.1521379!16s%2Fg%2F12hn57szb!19sChIJG7c7k3ImnkcRA9Vl4Ztb1zQ?authuser=0&hl=de&rclk=1,2026-05-13T20:06:21Z,active,success,
0x479e271dc63e0bf3:0xa0c6ac32c9d71a3d,Morgengold Frühstücksdienste Landshut,84028,,4.1,112,Imbiss,48.5358297,12.165583,39,Gewerbepark Nürnberg-Feucht,false,,,,,,,https://www.google.com/maps/place/Morgengold+Fr%C3%BChst%C3%BCcksdienste+Landshut/data=!4m7!3m6!1s0x479e271dc63e0bf3:0xa0c6ac32c9d71a3d!8m2!3d48.5358297!4d12.165583!16s%2Fg%2F11rb43ywsb!19sChIJ8ws-xh0nnkcRPRrXyTKsxqA?authuser=0&hl=de&rclk=1,2026-05-13T20:26:26Z,active,success,
0x479e25e44b2ff103:0x2a2cce3e7ac25add,Müller Café & Bäckerei,84028,,2.7,113,Bäckerei,48.5469528,12.1353951,39,Gewerbepark Nürnberg-Feucht,false,,,,,,,https://www.google.com/maps/place/M%C3%BCller+Caf%C3%A9+%26+B%C3%A4ckerei/data=!4m7!3m6!1s0x479e25e44b2ff103:0x2a2cce3e7ac25add!8m2!3d48.5469528!4d12.1353951!16s%2Fg%2F1tsjcn5m!19sChIJA_EvS-QlnkcR3VrCej7OLCo?authuser=0&hl=de&rclk=1,2026-05-13T20:25:07Z,active,success,
0x479e2673a1fce395:0x557ebd4de2ecdbc6,NANNAN LIGHT LANDSHUT,84028,,4.6,1030,Sushi,48.5452329,12.148863,39,Gewerbepark Nürnberg-Feucht,false,,,,,,,https://www.google.com/maps/place/NANNAN+LIGHT+LANDSHUT/data=!4m7!3m6!1s0x479e2673a1fce395:0x557ebd4de2ecdbc6!8m2!3d48.5452329!4d12.148863!16s%2Fg%2F1ptw0tcl3!19sChIJleP8oXMmnkcRxtvs4k29flU?authuser=0&hl=de&rclk=1,2026-05-13T20:12:03Z,active,success,
0x479e2673e0c228b5:0xdf7cfbd3cbe72cea,NEON LANDSHUT Café,84028,,4.3,1852,Café / Konditorei,48.53478,12.1511,39,Gewerbepark Nürnberg-Feucht,false,,,,,,,https://www.google.com/maps/place/NEON+LANDSHUT+Caf%C3%A9/data=!4m7!3m6!1s0x479e2673e0c228b5:0xdf7cfbd3cbe72cea!8m2!3d48.53478!4d12.1511!16s%2Fg%2F11h9zvf1ph!19sChIJtSjC4HMmnkcR6izny9P7fN8?authuser=0&hl=de&rclk=1,2026-05-13T20:02:41Z,active,success,
0x479e273a2921df83:0x261f7f9dec7c9d7f,Nepomuk Landshut,84028,,4.9,241,Restaurant,48.5370066,12.1504625,39,Gewerbepark Nürnberg-Feucht,false,,,,,,,https://www.google.com/maps/place/Nepomuk+Landshut/data=!4m7!3m6!1s0x479e273a2921df83:0x261f7f9dec7c9d7f!8m2!3d48.5370066!4d12.1504625!16s%2Fg%2F11rvb587cd!19sChIJg98hKTonnkcRf5187J1_HyY?authuser=0&hl=de&rclk=1,2026-05-13T20:01:45Z,active,success,
0x479e27000d7b4355:0x51f3b66fcb76e6d1,Nikolaidis Griechisches Restaurant,84028,,4.8,134,Restaurant,48.5385654,12.1533814,39,Gewerbepark Nürnberg-Feucht,true,11,20,15.5,10.37,4.406,11 bis 20 Bewertungen aufgrund von Beschwerden wegen Diffamierung entfernt.,https://www.google.com/maps/place/Nikolaidis+Griechisches+Restaurant/data=!4m7!3m6!1s0x479e27000d7b4355:0x51f3b66fcb76e6d1!8m2!3d48.5385654!4d12.1533814!16s%2Fg%2F11vzlk5sjd!19sChIJVUN7DQAnnkcR0eZ2y2-281E?authuser=0&hl=de&rclk=1,2026-05-13T20:10:32Z,active,success,
0x479e26738a747905:0xdded7669f04fd7a5,Nittiya´s Asien Shop & Thai-Imbiss,84028,,4.8,180,Asiatisch,48.5367826,12.1507909,39,Gewerbepark Nürnberg-Feucht,false,,,,,,,https://www.google.com/maps/place/Nittiya%C2%B4s+Asien+Shop+%26+Thai-Imbiss/data=!4m7!3m6!1s0x479e26738a747905:0xdded7669f04fd7a5!8m2!3d48.5367826!4d12.1507909!16s%2Fg%2F11h0l457f!19sChIJBXl0inMmnkcRpddP8Gl27d0?authuser=0&hl=de&rclk=1,2026-05-13T20:13:31Z,permanently_closed,success,
0x479e27855179e02d:0x74b304a1de84b6d8,Noon Mirch Indisches Restaurant — Altstadt Landshut,84028,,4.9,108,Restaurant,48.534235,12.1502826,39,Gewerbepark Nürnberg-Feucht,true,6,10,8,6.9,4.631,Sechs bis zehn Bewertungen aufgrund von Beschwerden wegen Diffamierung entfernt.,https://www.google.com/maps/place/Noon+Mirch+Indisches+Restaurant+%E2%80%94+Altstadt+Landshut/data=!4m7!3m6!1s0x479e27855179e02d:0x74b304a1de84b6d8!8m2!3d48.534235!4d12.1502826!16s%2Fg%2F11xl5_336d!19sChIJLeB5UYUnnkcR2LaE3qEEs3Q?authuser=0&hl=de&rclk=1,2026-05-13T20:01:50Z,active,success,
0x479e260b111c519f:0x9a349a8a9973d474,Original Brunner's Würstl Stand 1,84028,,4.6,89,Imbiss,48.5414137,12.150164,39,Gewerbepark Nürnberg-Feucht,false,,,,,,,https://www.google.com/maps/place/Original+Brunner%27s+W%C3%BCrstl+Stand+1/data=!4m7!3m6!1s0x479e260b111c519f:0x9a349a8a9973d474!8m2!3d48.5414137!4d12.150164!16s%2Fg%2F11dfhxg691!19sChIJn1EcEQsmnkcRdNRzmYqaNJo?authuser=0&hl=de&rclk=1,2026-05-13T20:14:42Z,active,success,
0x479e27a19096cded:0x890c157c98e68558,PIZZiCA Landshut,84028,,5,39,Restaurant,48.5292032,12.1444173,39,Gewerbepark Nürnberg-Feucht,false,,,,,,,https://www.google.com/maps/place/PIZZiCA+Landshut/data=!4m7!3m6!1s0x479e27a19096cded:0x890c157c98e68558!8m2!3d48.5292032!4d12.1444173!16s%2Fg%2F11w_zb3y00!19sChIJ7c2WkKEnnkcRWIXmmHwVDIk?authuser=0&hl=de&rclk=1,2026-05-13T20:23:31Z,temporarily_closed,success,
0x479e26713ed19c8b:0xc6198d956e5ca8cd,Pallas,84028,,4.5,1866,Restaurant,48.5331129,12.150387,39,Gewerbepark Nürnberg-Feucht,false,,,,,,,https://www.google.com/maps/place/Pallas/data=!4m7!3m6!1s0x479e26713ed19c8b:0xc6198d956e5ca8cd!8m2!3d48.5331129!4d12.150387!16s%2Fg%2F1tdcqhw7!19sChIJi5zRPnEmnkcRzahcbpWNGcY?authuser=0&hl=de&rclk=1,2026-05-13T20:09:36Z,active,success,
0x479e26713fe50419:0x8bcf428d6244a07a,Paolo Café & Feinkost,84028,,4.6,194,Bar / Kneipe,48.5346006,12.1520645,39,Gewerbepark Nürnberg-Feucht,false,,,,,,,https://www.google.com/maps/place/Paolo+Caf%C3%A9+%26+Feinkost/data=!4m7!3m6!1s0x479e26713fe50419:0x8bcf428d6244a07a!8m2!3d48.5346006!4d12.1520645!16s%2Fg%2F11cs6ft5jy!19sChIJGQTlP3EmnkcReqBEYo1Cz4s?authuser=0&hl=de&rclk=1,2026-05-13T20:04:44Z,active,success,
0x479e2673d1d1d7d1:0xe1b35f7034a8f571,Pho 270,84028,,4.6,177,Asiatisch,48.534989,12.1524135,39,Gewerbepark Nürnberg-Feucht,false,,,,,,,https://www.google.com/maps/place/Pho+270/data=!4m7!3m6!1s0x479e2673d1d1d7d1:0xe1b35f7034a8f571!8m2!3d48.534989!4d12.1524135!16s%2Fg%2F11hb3kc3zy!19sChIJ0dfR0XMmnkcRcfWoNHBfs-E?authuser=0&hl=de&rclk=1,2026-05-13T20:17:09Z,active,success,
0x479e260b3f9d88a9:0x33014ea151e7a3e4,Piccolo Bar,84028,,4.5,103,Bar / Kneipe,48.5407245,12.1504793,39,Gewerbepark Nürnberg-Feucht,false,,,,,,,https://www.google.com/maps/place/Piccolo+Bar/data=!4m7!3m6!1s0x479e260b3f9d88a9:0x33014ea151e7a3e4!8m2!3d48.5407245!4d12.1504793!16s%2Fg%2F1tyktc65!19sChIJqYidPwsmnkcR5KPnUaFOATM?authuser=0&hl=de&rclk=1,2026-05-13T20:06:06Z,active,success,
0x479e25d4263c50ef:0xe630d5b5d7ffdfe1,Piccolo Mondo,84028,,4.4,1445,Restaurant,48.525973,12.134751,39,Gewerbepark Nürnberg-Feucht,false,,,,,,,https://www.google.com/maps/place/Piccolo+Mondo/data=!4m7!3m6!1s0x479e25d4263c50ef:0xe630d5b5d7ffdfe1!8m2!3d48.525973!4d12.134751!16s%2Fg%2F1tjt0y86!19sChIJ71A8JtQlnkcR4d__17XVMOY?authuser=0&hl=de&rclk=1,2026-05-13T20:20:49Z,active,success,
0x479e2671130ed21d:0x16f3b57373c390c8,PizzOsteria & Tappas Bar Veronika Tomascinova,84028,,4.6,89,Restaurant,48.5334999,12.1507065,39,Gewerbepark Nürnberg-Feucht,false,,,,,,,https://www.google.com/maps/place/PizzOsteria+%26+Tappas+Bar+Veronika+Tomascinova/data=!4m7!3m6!1s0x479e2671130ed21d:0x16f3b57373c390c8!8m2!3d48.5334999!4d12.1507065!16s%2Fg%2F1tlc_4tq!19sChIJHdIOE3EmnkcRyJDDc3O18xY?authuser=0&hl=de&rclk=1,2026-05-13T20:10:18Z,active,success,
0x479e27f6371e5463:0xc8818ca7264ee1b7,Pizza Pico,84028,,4.8,50,Restaurant,48.5450538,12.1636477,39,Gewerbepark Nürnberg-Feucht,false,,,,,,,https://www.google.com/maps/place/Pizza+Pico/data=!4m7!3m6!1s0x479e27f6371e5463:0xc8818ca7264ee1b7!8m2!3d48.5450538!4d12.1636477!16s%2Fg%2F11wv401_4j!19sChIJY1QeN_YnnkcRt-FOJqeMgcg?authuser=0&hl=de&rclk=1,2026-05-13T20:20:06Z,active,success,
0x479e2611a69d35bf:0x9160f64a9f89ee0b,Pizza Tusa,84028,,4.6,283,Restaurant,48.5350358,12.1430881,39,Gewerbepark Nürnberg-Feucht,false,,,,,,,https://www.google.com/maps/place/Pizza+Tusa/data=!4m7!3m6!1s0x479e2611a69d35bf:0x9160f64a9f89ee0b!8m2!3d48.5350358!4d12.1430881!16s%2Fg%2F11g6xwppqn!19sChIJvzWdphEmnkcRC-6Jn0r2YJE?authuser=0&hl=de&rclk=1,2026-05-13T20:20:55Z,active,success,
0x479e260afcb2e631:0x7d4accf7290e1759,Pizza-Stube,84028,,3.6,287,Pizzeria,48.54989,12.1607471,39,Gewerbepark Nürnberg-Feucht,false,,,,,,,https://www.google.com/maps/place/Pizza-Stube/data=!4m7!3m6!1s0x479e260afcb2e631:0x7d4accf7290e1759!8m2!3d48.54989!4d12.1607471!16s%2Fg%2F1tk1lztj!19sChIJMeay_AomnkcRWRcOKffMSn0?authuser=0&hl=de&rclk=1,2026-05-13T20:22:04Z,active,success,
0x479e2679233ca931:0x298cbf3c48f3599e,Pizzeria Adria,84028,,4.6,221,Pizzeria,48.52629,12.14326,39,Gewerbepark Nürnberg-Feucht,false,,,,,,,https://www.google.com/maps/place/Pizzeria+Adria/data=!4m7!3m6!1s0x479e2679233ca931:0x298cbf3c48f3599e!8m2!3d48.52629!4d12.14326!16s%2Fg%2F1hc1c_55d!19sChIJMak8I3kmnkcRnlnzSDy_jCk?authuser=0&hl=de&rclk=1,2026-05-13T20:20:21Z,active,success,
0x479e25fc34d8d1e9:0x308c0e1d30b9f78d,Pizzeria Graziella,84028,,4.2,100,Pizzeria,48.5541831,12.1472591,39,Gewerbepark Nürnberg-Feucht,false,,,,,,,https://www.google.com/maps/place/Pizzeria+Graziella/data=!4m7!3m6!1s0x479e25fc34d8d1e9:0x308c0e1d30b9f78d!8m2!3d48.5541831!4d12.1472591!16s%2Fg%2F11g72g0gqr!19sChIJ6dHYNPwlnkcRjfe5MB0OjDA?authuser=0&hl=de&rclk=1,2026-05-13T20:21:10Z,active,success,
0x479e276af805a3f9:0x66ea5404e2d93806,Pizzeria Pomodoro & Mozzarella,84028,,4.5,365,Restaurant,48.5376296,12.1524855,39,Gewerbepark Nürnberg-Feucht,false,,,,,,,https://www.google.com/maps/place/Pizzeria+Pomodoro+%26+Mozzarella/data=!4m7!3m6!1s0x479e276af805a3f9:0x66ea5404e2d93806!8m2!3d48.5376296!4d12.1524855!16s%2Fg%2F11rz42n21k!19sChIJ-aMF-GonnkcRBjjZ4gRU6mY?authuser=0&hl=de&rclk=1,2026-05-13T20:11:46Z,active,success,
0x479e288991dd2ac3:0x38f2bcf5b3a7d331,Pizzeria da Vittorio,84028,,4.3,448,Restaurant,48.5683333,12.2091667,39,Gewerbepark Nürnberg-Feucht,false,,,,,,,https://www.google.com/maps/place/Pizzeria+da+Vittorio/data=!4m7!3m6!1s0x479e288991dd2ac3:0x38f2bcf5b3a7d331!8m2!3d48.5683333!4d12.2091667!16s%2Fg%2F11clw3dq1k!19sChIJwyrdkYkonkcRMdOns_W88jg?authuser=0&hl=de&rclk=1,2026-05-13T20:21:30Z,active,success,
0x479e260ad7576b39:0x30ff859fc2c4314e,Pollner GmbH,84028,,4.3,47,Bäckerei,48.54053,12.1483,39,Gewerbepark Nürnberg-Feucht,false,,,,,,,https://www.google.com/maps/place/Pollner+GmbH/data=!4m7!3m6!1s0x479e260ad7576b39:0x30ff859fc2c4314e!8m2!3d48.54053!4d12.1483!16s%2Fg%2F1thx7ll9!19sChIJOWtX1womnkcRTjHEwp-F_zA?authuser=0&hl=de&rclk=1,2026-05-13T20:25:46Z,active,success,
0x479e27a6482b271f:0x8a2f85397e862906,Poseidon Garden,84028,,4.5,568,Restaurant,48.5329762,12.1489333,39,Gewerbepark Nürnberg-Feucht,false,,,,,,,https://www.google.com/maps/place/Poseidon+Garden/data=!4m7!3m6!1s0x479e27a6482b271f:0x8a2f85397e862906!8m2!3d48.5329762!4d12.1489333!16s%2Fg%2F11h4d9q89b!19sChIJHycrSKYnnkcRBimGfjmFL4o?authuser=0&hl=de&rclk=1,2026-05-13T20:10:11Z,active,success,
0x479e2602878fb36f:0x5416ff2d748847d4,Primo Pizzeria Restaurant & Heimservice - Landshut,84028,,4.7,135,Pizzeria,48.5581158,12.1630958,39,Gewerbepark Nürnberg-Feucht,true,21,50,35.5,20.82,3.93,21 bis 50 Bewertungen aufgrund von Beschwerden wegen Diffamierung entfernt.,https://www.google.com/maps/place/Primo+Pizzeria+Restaurant+%26+Heimservice+-+Landshut/data=!4m7!3m6!1s0x479e2602878fb36f:0x5416ff2d748847d4!8m2!3d48.5581158!4d12.1630958!16s%2Fg%2F1tdpqn8z!19sChIJb7OPhwImnkcR1EeIdC3_FlQ?authuser=0&hl=de&rclk=1,2026-05-13T20:21:16Z,active,success,
0x479e277b43f413ab:0xc48f1bfbb85701c3,RESTAURANT DHABA LANDSHUT,84028,,4.9,1545,Asiatisch,48.5351159,12.1515933,39,Gewerbepark Nürnberg-Feucht,false,,,,,,,https://www.google.com/maps/place/RESTAURANT+DHABA+LANDSHUT/data=!4m7!3m6!1s0x479e277b43f413ab:0xc48f1bfbb85701c3!8m2!3d48.5351159!4d12.1515933!16s%2Fg%2F11h7kc0rsm!19sChIJqxP0Q3snnkcRwwFXuPsbj8Q?authuser=0&hl=de&rclk=1,2026-05-13T20:00:30Z,active,success,
0x479e26748db7944b:0xb78eb253f4214280,Rauchensteiner,84028,,4.4,526,Restaurant,48.5377582,12.1494648,39,Gewerbepark Nürnberg-Feucht,false,,,,,,,https://www.google.com/maps/place/Rauchensteiner/data=!4m7!3m6!1s0x479e26748db7944b:0xb78eb253f4214280!8m2!3d48.5377582!4d12.1494648!16s%2Fg%2F1txnnfzq!19sChIJS5S3jXQmnkcRgEIh9FOyjrc?authuser=0&hl=de&rclk=1,2026-05-13T20:12:36Z,temporarily_closed,success,
0x479e2672933bb71b:0xa65f5ea14f540484,RegierungsCafé,84028,,5,3,Café / Konditorei,48.5374154,12.1558144,39,Gewerbepark Nürnberg-Feucht,false,,,,,,,https://www.google.com/maps/place/RegierungsCaf%C3%A9/data=!4m7!3m6!1s0x479e2672933bb71b:0xa65f5ea14f540484!8m2!3d48.5374154!4d12.1558144!16s%2Fg%2F12hmk84c3!19sChIJG7c7k3ImnkcRhARUT6FeX6Y?authuser=0&hl=de&rclk=1,2026-05-13T20:04:02Z,active,success,
0x479e25c16dd64c3d:0xbab72067cd4d729a,Reiners Bread & Snack,84028,,4.2,174,Bäckerei,48.5392764,12.1232821,39,Gewerbepark Nürnberg-Feucht,false,,,,,,,https://www.google.com/maps/place/Reiners+Bread+%26+Snack/data=!4m7!3m6!1s0x479e25c16dd64c3d:0xbab72067cd4d729a!8m2!3d48.5392764!4d12.1232821!16s%2Fg%2F11g7zfm49k!19sChIJPUzWbcElnkcRmnJNzWcgt7o?authuser=0&hl=de&rclk=1,2026-05-13T20:25:00Z,active,success,
0x479e2609235d03db:0x83212ff6b85af5ef,Reiskorn,84028,,4.8,392,Asiatisch,48.5464154,12.1533124,39,Gewerbepark Nürnberg-Feucht,false,,,,,,,https://www.google.com/maps/place/Reiskorn/data=!4m7!3m6!1s0x479e2609235d03db:0x83212ff6b85af5ef!8m2!3d48.5464154!4d12.1533124!16s%2Fg%2F11cppdsq05!19sChIJ2wNdIwkmnkcR7_VauPYvIYM?authuser=0&hl=de&rclk=1,2026-05-13T20:14:06Z,active,success,
0x479e26146dd5cc5d:0x6eb48f6a71944ca,Restaurant Dynasty,84028,,4.5,553,Asiatisch,48.5413407,12.166903,39,Gewerbepark Nürnberg-Feucht,true,11,20,15.5,2.73,4.405,11 bis 20 Bewertungen aufgrund von Beschwerden wegen Diffamierung entfernt.,https://www.google.com/maps/place/Restaurant+Dynasty/data=!4m7!3m6!1s0x479e26146dd5cc5d:0x6eb48f6a71944ca!8m2!3d48.5413407!4d12.166903!16s%2Fg%2F1v1tm1xd!19sChIJXczVbRQmnkcRykQZp_ZI6wY?authuser=0&hl=de&rclk=1,2026-05-13T20:19:03Z,active,success,
0x479e260cd70277b7:0xb0c0ea2c72c31761,Restaurant Freiraum,84028,,4.3,969,Restaurant,48.5396906,12.1547794,39,Gewerbepark Nürnberg-Feucht,false,,,,,,,https://www.google.com/maps/place/Restaurant+Freiraum/data=!4m7!3m6!1s0x479e260cd70277b7:0xb0c0ea2c72c31761!8m2!3d48.5396906!4d12.1547794!16s%2Fg%2F11b6hqm8s3!19sChIJt3cC1wwmnkcRYRfDcizqwLA?authuser=0&hl=de&rclk=1,2026-05-13T20:05:45Z,active,success,
0x479e273f04ffa755:0x6f8b8789df1e1250,Restaurant Mythos Landshut,84028,,4.7,368,Restaurant,48.5535356,12.1770996,39,Gewerbepark Nürnberg-Feucht,false,,,,,,,https://www.google.com/maps/place/Restaurant+Mythos+Landshut/data=!4m7!3m6!1s0x479e273f04ffa755:0x6f8b8789df1e1250!8m2!3d48.5535356!4d12.1770996!16s%2Fg%2F11q4k968gw!19sChIJVaf_BD8nnkcRUBIe34mHi28?authuser=0&hl=de&rclk=1,2026-05-13T20:02:16Z,active,success,
0x479e2679fafc9901:0x448f800858783f9a,Restaurant Poseidon,84028,,4.6,1584,Restaurant,48.529323,12.146488,39,Gewerbepark Nürnberg-Feucht,false,,,,,,,https://www.google.com/maps/place/Restaurant+Poseidon/data=!4m7!3m6!1s0x479e2679fafc9901:0x448f800858783f9a!8m2!3d48.529323!4d12.146488!16s%2Fg%2F1tdjq3wf!19sChIJAZn8-nkmnkcRmj94WAiAj0Q?authuser=0&hl=de&rclk=1,2026-05-13T20:22:30Z,active,success,
0x479e271109c1d289:0x9e3dc2eaf1fd5c6b,Restaurant Sokrates,84028,,4.9,740,Restaurant,48.5397242,12.1552583,39,Gewerbepark Nürnberg-Feucht,true,1,1,1,0.13,4.895,Eine Bewertung aufgrund einer Beschwerde wegen Diffamierung entfernt.,https://www.google.com/maps/place/Restaurant+Sokrates/data=!4m7!3m6!1s0x479e271109c1d289:0x9e3dc2eaf1fd5c6b!8m2!3d48.5397242!4d12.1552583!16s%2Fg%2F11n963vqy6!19sChIJidLBCREnnkcRa1z98erCPZ4?authuser=0&hl=de&rclk=1,2026-05-13T20:00:54Z,active,success,
0x479e2675a682528d:0x7ec653d2b206348a,Ristorante Bellini,84028,,4.5,596,Restaurant,48.5372774,12.1460557,39,Gewerbepark Nürnberg-Feucht,false,,,,,,,https://www.google.com/maps/place/Ristorante+Bellini/data=!4m7!3m6!1s0x479e2675a682528d:0x7ec653d2b206348a!8m2!3d48.5372774!4d12.1460557!16s%2Fg%2F1tknjfnk!19sChIJjVKCpnUmnkcRijQGstJTxn4?authuser=0&hl=de&rclk=1,2026-05-13T20:21:36Z,active,success,
0x479e267169132cf3:0x4f94bcbc1cf69c07,Ristorante Caffè Torretta - Pizza - Pasta - Caffè - Bar,84028,,4.4,400,Restaurant,48.5337802,12.1509352,39,Gewerbepark Nürnberg-Feucht,false,,,,,,,https://www.google.com/maps/place/Ristorante+Caff%C3%A8+Torretta+-+Pizza+-+Pasta+-+Caff%C3%A8+-+Bar/data=!4m7!3m6!1s0x479e267169132cf3:0x4f94bcbc1cf69c07!8m2!3d48.5337802!4d12.1509352!16s%2Fg%2F1ptw406gc!19sChIJ8ywTaXEmnkcRB5z2HLy8lE8?authuser=0&hl=de&rclk=1,2026-05-13T20:08:11Z,active,success,
0x479e2670f4dc4689:0x5b769c7eb32f4863,Ristorante Rossini,84028,,4.6,474,Restaurant,48.5308697,12.1509669,39,Gewerbepark Nürnberg-Feucht,false,,,,,,,https://www.google.com/maps/place/Ristorante+Rossini/data=!4m7!3m6!1s0x479e2670f4dc4689:0x5b769c7eb32f4863!8m2!3d48.5308697!4d12.1509669!16s%2Fg%2F1tfvryg9!19sChIJiUbc9HAmnkcRY0gvs36cdls?authuser=0&hl=de&rclk=1,2026-05-13T20:12:15Z,active,success,
0x479e26713af00e01:0x63ece31decbc9761,Ristorante Vincenzo,84028,,4.3,692,Restaurant,48.5350807,12.1481156,39,Gewerbepark Nürnberg-Feucht,false,,,,,,,https://www.google.com/maps/place/Ristorante+Vincenzo/data=!4m7!3m6!1s0x479e26713af00e01:0x63ece31decbc9761!8m2!3d48.5350807!4d12.1481156!16s%2Fg%2F1tcx0h_9!19sChIJAQ7wOnEmnkcRYZe87B3j7GM?authuser=0&hl=de&rclk=1,2026-05-13T20:21:02Z,active,success,
0x479e260f27b1e497:0x21a873446fa831a0,Ristorante – Regensburger Hof Landshut,84028,,4.5,495,Restaurant,48.5468266,12.1558862,39,Gewerbepark Nürnberg-Feucht,false,,,,,,,https://www.google.com/maps/place/Ristorante+%E2%80%93+Regensburger+Hof+Landshut/data=!4m7!3m6!1s0x479e260f27b1e497:0x21a873446fa831a0!8m2!3d48.5468266!4d12.1558862!16s%2Fg%2F1td70_2_!19sChIJl-SxJw8mnkcRoDGob0RzqCE?authuser=0&hl=de&rclk=1,2026-05-13T20:20:13Z,active,success,
0x479e26740a56095b:0xc5f2715378fb6b6b,Ristorante-Pizzeria buono,84028,,4.6,470,Restaurant,48.53578,12.1497999,39,Gewerbepark Nürnberg-Feucht,false,,,,,,,https://www.google.com/maps/place/Ristorante-Pizzeria+buono/data=!4m7!3m6!1s0x479e26740a56095b:0xc5f2715378fb6b6b!8m2!3d48.53578!4d12.1497999!16s%2Fg%2F11clr_qfcc!19sChIJWwlWCnQmnkcRa2v7eFNx8sU?authuser=0&hl=de&rclk=1,2026-05-13T20:15:11Z,active,success,
0x479e26730d21f655:0x627eeeee02b57a8e,Ruff's Burger & BBQ Landshut Altstadt,84028,,4.3,953,Burger,48.5375397,12.1528487,39,Gewerbepark Nürnberg-Feucht,false,,,,,,,https://www.google.com/maps/place/Ruff%27s+Burger+%26+BBQ+Landshut+Altstadt/data=!4m7!3m6!1s0x479e26730d21f655:0x627eeeee02b57a8e!8m2!3d48.5375397!4d12.1528487!16s%2Fg%2F1tdd47r4!19sChIJVfYhDXMmnkcRjnq1Au7ufmI?authuser=0&hl=de&rclk=1,2026-05-13T20:22:11Z,active,success,
0x479e2600b5c953e3:0x32b7ce4bdb0d0f77,Rungtiwa Thai Imbiss,84028,,4.6,62,Imbiss,48.5548645,12.1530752,39,Gewerbepark Nürnberg-Feucht,false,,,,,,,https://www.google.com/maps/place/Rungtiwa+Thai+Imbiss/data=!4m7!3m6!1s0x479e2600b5c953e3:0x32b7ce4bdb0d0f77!8m2!3d48.5548645!4d12.1530752!16s%2Fg%2F11g68tpn7c!19sChIJ41PJtQAmnkcRdw8N20vOtzI?authuser=0&hl=de&rclk=1,2026-05-13T20:15:03Z,active,success,
0x479e277f4645b509:0x211705a8b7780a2a,SOYO - Restaurant & Bar,84028,,4.7,256,Asiatisch,48.5417826,12.1487708,39,Gewerbepark Nürnberg-Feucht,true,11,20,15.5,5.71,4.489,11 bis 20 Bewertungen aufgrund von Beschwerden wegen Diffamierung entfernt.,https://www.google.com/maps/place/SOYO+-+Restaurant+%26+Bar/data=!4m7!3m6!1s0x479e277f4645b509:0x211705a8b7780a2a!8m2!3d48.5417826!4d12.1487708!16s%2Fg%2F11v15lrwp1!19sChIJCbVFRn8nnkcRKgp4t6gFFyE?authuser=0&hl=de&rclk=1,2026-05-13T20:17:25Z,active,success,
0x479e2604bf54cfb3:0x8e7c3dbc24fe15c4,Sapa Wok im Kaufland,84028,,4.4,50,Asiatisch,48.5520851,12.162107,39,Gewerbepark Nürnberg-Feucht,false,,,,,,,https://www.google.com/maps/place/Sapa+Wok+im+Kaufland/data=!4m7!3m6!1s0x479e2604bf54cfb3:0x8e7c3dbc24fe15c4!8m2!3d48.5520851!4d12.162107!16s%2Fg%2F1w0j35j7!19sChIJs89UvwQmnkcRxBX-JLw9fI4?authuser=0&hl=de&rclk=1,2026-05-13T20:17:02Z,active,success,
0x479e2587ae130293:0x46b151db122b664,Schmidtis Wurstbude,84028,,,0,Imbiss,48.5404125,12.1004253,39,Gewerbepark Nürnberg-Feucht,false,,,,,,,https://www.google.com/maps/place/Schmidtis+Wurstbude/data=!4m7!3m6!1s0x479e2587ae130293:0x46b151db122b664!8m2!3d48.5404125!4d12.1004253!16s%2Fg%2F11z3mp_v1d!19sChIJkwITroclnkcRZLYisR0VawQ?authuser=0&hl=de&rclk=1,2026-05-13T20:17:43Z,no_public_reviews,success,
0x479e2672caf940d1:0xa8baeef0838cf0d4,Segafredo ZANETTI,84028,,4.6,40,Café / Konditorei,48.5391435,12.1566669,39,Gewerbepark Nürnberg-Feucht,false,,,,,,,https://www.google.com/maps/place/Segafredo+ZANETTI/data=!4m7!3m6!1s0x479e2672caf940d1:0xa8baeef0838cf0d4!8m2!3d48.5391435!4d12.1566669!16s%2Fg%2F1vxw77nl!19sChIJ0UD5ynImnkcR1PCMg_Duuqg?authuser=0&hl=de&rclk=1,2026-05-13T20:05:06Z,active,success,
0x479e26740a5920e5:0xc4cb0d07823c6093,Sen Restaurant Landshut,84028,,4.7,179,Asiatisch,48.535568,12.1502332,39,Gewerbepark Nürnberg-Feucht,false,,,,,,,https://www.google.com/maps/place/Sen+Restaurant+Landshut/data=!4m7!3m6!1s0x479e26740a5920e5:0xc4cb0d07823c6093!8m2!3d48.535568!4d12.1502332!16s%2Fg%2F1z449tlqb!19sChIJ5SBZCnQmnkcRk2A8ggcNy8Q?authuser=0&hl=de&rclk=1,2026-05-13T20:01:39Z,active,success,
0x479e267321146f63:0xa8998e135c9350ec,Siam Feinkost,84028,,4.7,245,Asiatisch,48.538245,12.154205,39,Gewerbepark Nürnberg-Feucht,false,,,,,,,https://www.google.com/maps/place/Siam+Feinkost/data=!4m7!3m6!1s0x479e267321146f63:0xa8998e135c9350ec!8m2!3d48.538245!4d12.154205!16s%2Fg%2F1tw_m6qn!19sChIJY28UIXMmnkcR7FCTXBOOmag?authuser=0&hl=de&rclk=1,2026-05-13T20:14:55Z,active,success,
0x479e254340e40db9:0x44628b519400e1af,Simit Café,84028,,4.9,391,Restaurant,48.5475766,12.1108427,39,Gewerbepark Nürnberg-Feucht,true,2,5,3.5,0.89,4.865,Zwei bis fünf Bewertungen aufgrund von Beschwerden wegen Diffamierung entfernt.,https://www.google.com/maps/place/Simit+Caf%C3%A9/data=!4m7!3m6!1s0x479e254340e40db9:0x44628b519400e1af!8m2!3d48.5475766!4d12.1108427!16s%2Fg%2F11lfgc5gz7!19sChIJuQ3kQEMlnkcRr-EAlFGLYkQ?authuser=0&hl=de&rclk=1,2026-05-13T20:27:15Z,active,success,
0x479e2764d0b94d2b:0xda9e5a4b7d89444f,Singerhaus,84028,,4.8,67,Café / Konditorei,48.5343425,12.1503134,39,Gewerbepark Nürnberg-Feucht,false,,,,,,,https://www.google.com/maps/place/Singerhaus/data=!4m7!3m6!1s0x479e2764d0b94d2b:0xda9e5a4b7d89444f!8m2!3d48.5343425!4d12.1503134!16s%2Fg%2F11yx1qj557!19sChIJK0250GQnnkcRT0SJfUtanto?authuser=0&hl=de&rclk=1,2026-05-13T20:27:07Z,active,success,
0x479e278e13ba0b1d:0x2da3780f5ed314c6,Solu`s Landshut - Türkisch-italienisches Restaurant,84028,,5,33,Restaurant,48.5434226,12.1715307,39,Gewerbepark Nürnberg-Feucht,false,,,,,,,https://www.google.com/maps/place/Solu%60s+Landshut+-+T%C3%BCrkisch-italienisches+Restaurant/data=!4m7!3m6!1s0x479e278e13ba0b1d:0x2da3780f5ed314c6!8m2!3d48.5434226!4d12.1715307!16s%2Fg%2F11z36c3c9b!19sChIJHQu6E44nnkcRxhTTXg94oy0?authuser=0&hl=de&rclk=1,2026-05-13T20:00:16Z,active,success,
0x479e276124e8acb9:0xf4b86587b80d2106,Sonic Café,84028,,5,6,Bar / Kneipe,48.5347215,12.1519912,39,Gewerbepark Nürnberg-Feucht,false,,,,,,,https://www.google.com/maps/place/Sonic+Caf%C3%A9/data=!4m7!3m6!1s0x479e276124e8acb9:0xf4b86587b80d2106!8m2!3d48.5347215!4d12.1519912!16s%2Fg%2F11x0gxjwc0!19sChIJuazoJGEnnkcRBiENuIdluPQ?authuser=0&hl=de&rclk=1,2026-05-13T20:08:38Z,active,success,
0x479e2673efa0856d:0x8c3321962cb60dde,Stegfellner,84028,,4.5,219,Restaurant,48.5352778,12.1508333,39,Gewerbepark Nürnberg-Feucht,false,,,,,,,https://www.google.com/maps/place/Stegfellner/data=!4m7!3m6!1s0x479e2673efa0856d:0x8c3321962cb60dde!8m2!3d48.5352778!4d12.1508333!16s%2Fg%2F1tkl299f!19sChIJbYWg73MmnkcR3g22LJYhM4w?authuser=0&hl=de&rclk=1,2026-05-13T20:08:52Z,active,success,
0x479e260b3fa12e71:0x6a1cecbde5098102,Sultan Grill,84028,,4.8,269,Imbiss,48.540754,12.1504159,39,Gewerbepark Nürnberg-Feucht,false,,,,,,,https://www.google.com/maps/place/Sultan+Grill/data=!4m7!3m6!1s0x479e260b3fa12e71:0x6a1cecbde5098102!8m2!3d48.540754!4d12.1504159!16s%2Fg%2F11d_1tcmpt!19sChIJcS6hPwsmnkcRAoEJ5b3sHGo?authuser=0&hl=de&rclk=1,2026-05-13T20:10:46Z,active,success,
0x479e2534bfbcbd29:0xab852a9b3f842c82,Surahi Landshut - indische Spezialitäten Restaurant,84028,,4.7,151,Asiatisch,48.5503456,12.1406203,39,Gewerbepark Nürnberg-Feucht,true,6,10,8,5.03,4.514,Sechs bis zehn Bewertungen aufgrund von Beschwerden wegen Diffamierung entfernt.,https://www.google.com/maps/place/Surahi+Landshut+-+indische+Spezialit%C3%A4ten+Restaurant/data=!4m7!3m6!1s0x479e2534bfbcbd29:0xab852a9b3f842c82!8m2!3d48.5503456!4d12.1406203!16s%2Fg%2F11ssvfc831!19sChIJKb28vzQlnkcRgiyEP5sqhas?authuser=0&hl=de&rclk=1,2026-05-13T20:18:17Z,active,success,
0x479e2679c4475aa5:0xd0ef75a7ffc09748,TAGWERK Biomarkt Frisch & Fein,84028,,4.6,87,Lebensmittel,48.5293213,12.144939,39,Gewerbepark Nürnberg-Feucht,false,,,,,,,https://www.google.com/maps/place/TAGWERK+Biomarkt+Frisch+%26+Fein/data=!4m7!3m6!1s0x479e2679c4475aa5:0xd0ef75a7ffc09748!8m2!3d48.5293213!4d12.144939!16s%2Fg%2F1tmptzfx!19sChIJpVpHxHkmnkcRSJfA_6d179A?authuser=0&hl=de&rclk=1,2026-05-13T20:28:18Z,active,success,
0x479e278b856e8917:0x472eeec8ea2a5ca7,TRES LLAMAS Spezialitäten - Café,84028,,4.8,133,Café / Konditorei,48.5346095,12.154027,39,Gewerbepark Nürnberg-Feucht,true,2,5,3.5,2.56,4.703,Zwei bis fünf Bewertungen aufgrund von Beschwerden wegen Diffamierung entfernt.,https://www.google.com/maps/place/TRES+LLAMAS+Spezialit%C3%A4ten+-+Caf%C3%A9/data=!4m7!3m6!1s0x479e278b856e8917:0x472eeec8ea2a5ca7!8m2!3d48.5346095!4d12.154027!16s%2Fg%2F11ll3865dp!19sChIJF4luhYsnnkcRp1wq6sjuLkc?authuser=0&hl=de&rclk=1,2026-05-13T20:02:48Z,active,success,
0x479e260b4f80cca7:0xd303085d5e8ed0f7,TUK-TUK Süd-Ostasiatische Esskultur,84028,,4.3,223,Asiatisch,48.5402627,12.1509094,39,Gewerbepark Nürnberg-Feucht,false,,,,,,,https://www.google.com/maps/place/TUK-TUK+S%C3%BCd-Ostasiatische+Esskultur/data=!4m7!3m6!1s0x479e260b4f80cca7:0xd303085d5e8ed0f7!8m2!3d48.5402627!4d12.1509094!16s%2Fg%2F1tgcx0_5!19sChIJp8yATwsmnkcR99COXl0IA9M?authuser=0&hl=de&rclk=1,2026-05-13T20:15:27Z,active,success,
0x479e27d956b39317:0x108b2b123d0a20c2,Tagesbar im Modehaus Oberpaur,84028,,4.9,12,Café / Konditorei,48.5345308,12.1500198,39,Gewerbepark Nürnberg-Feucht,false,,,,,,,https://www.google.com/maps/place/Tagesbar+im+Modehaus+Oberpaur/data=!4m7!3m6!1s0x479e27d956b39317:0x108b2b123d0a20c2!8m2!3d48.5345308!4d12.1500198!16s%2Fg%2F11h5mb80f_!19sChIJF5OzVtknnkcRwiAKPRIrixA?authuser=0&hl=de&rclk=1,2026-05-13T20:05:14Z,active,success,
0x479e2727bbec8993:0xa17ad02d210df61a,Tanda Palace,84028,,4.9,284,Asiatisch,48.5326519,12.1488625,39,Gewerbepark Nürnberg-Feucht,true,21,50,35.5,11.11,4.467,21 bis 50 Bewertungen aufgrund von Beschwerden wegen Diffamierung entfernt.,https://www.google.com/maps/place/Tanda+Palace/data=!4m7!3m6!1s0x479e2727bbec8993:0xa17ad02d210df61a!8m2!3d48.5326519!4d12.1488625!16s%2Fg%2F11smzm09b5!19sChIJk4nsuycnnkcRGvYNIS3QeqE?authuser=0&hl=de&rclk=1,2026-05-13T20:07:13Z,active,success,
0x479e2673ea3ef8a9:0x21c9fe607bf6b7f7,Tante Frieda Cafe & Bistro,84028,,4.2,1140,Restaurant,48.5355183,12.1514351,39,Gewerbepark Nürnberg-Feucht,false,,,,,,,https://www.google.com/maps/place/Tante+Frieda+Cafe+%26+Bistro/data=!4m7!3m6!1s0x479e2673ea3ef8a9:0x21c9fe607bf6b7f7!8m2!3d48.5355183!4d12.1514351!16s%2Fg%2F11c5x7fp5c!19sChIJqfg-6nMmnkcR97f2e2D-ySE?authuser=0&hl=de&rclk=1,2026-05-13T20:03:49Z,active,success,
0x479e260cbf10a199:0x22529207e31f051e,Taverna Delphi,84028,,4.6,774,Restaurant,48.5404663,12.1534901,39,Gewerbepark Nürnberg-Feucht,false,,,,,,,https://www.google.com/maps/place/Taverna+Delphi/data=!4m7!3m6!1s0x479e260cbf10a199:0x22529207e31f051e!8m2!3d48.5404663!4d12.1534901!16s%2Fg%2F1vxfz4dt!19sChIJmaEQvwwmnkcRHgUf4weSUiI?authuser=0&hl=de&rclk=1,2026-05-13T20:11:54Z,active,success,
0x479e2673db5b2717:0x30f749fe9f096209,Taverne im Vitztumb,84028,,4.6,292,Restaurant,48.5349955,12.1494454,39,Gewerbepark Nürnberg-Feucht,false,,,,,,,https://www.google.com/maps/place/Taverne+im+Vitztumb/data=!4m7!3m6!1s0x479e2673db5b2717:0x30f749fe9f096209!8m2!3d48.5349955!4d12.1494454!16s%2Fg%2F1q627wzdm!19sChIJFydb23MmnkcRCWIJn_5J9zA?authuser=0&hl=de&rclk=1,2026-05-13T20:11:10Z,active,success,
0x479e270031254e91:0xb35691002f0a5327,Tetja,84028,,,,Bäckerei,48.547689,12.1793172,39,Gewerbepark Nürnberg-Feucht,false,,,,,,,https://www.google.com/maps/place/Tetja/data=!4m7!3m6!1s0x479e270031254e91:0xb35691002f0a5327!8m2!3d48.547689!4d12.1793172!16s%2Fg%2F11z2g4217m!19sChIJkU4lMQAnnkcRJ1MKLwCRVrM?authuser=0&hl=de&rclk=1,2026-05-13T20:27:55Z,active,success,
0x479e2672896daa1d:0xc19cb86e9af90db3,Thai-Restaurant Luk-Yaamo&Bar-Landshut,84028,,4.4,241,Asiatisch,48.536729,12.1559344,39,Gewerbepark Nürnberg-Feucht,false,,,,,,,https://www.google.com/maps/place/Thai-Restaurant+Luk-Yaamo%26Bar-Landshut/data=!4m7!3m6!1s0x479e2672896daa1d:0xc19cb86e9af90db3!8m2!3d48.536729!4d12.1559344!16s%2Fg%2F11_t3v1n5!19sChIJHaptiXImnkcRsw35mm64nME?authuser=0&hl=de&rclk=1,2026-05-13T20:13:04Z,temporarily_closed,success,
0x479e2671130ed21d:0x940ef2cad8e60d11,The Butcher,84028,,4.5,820,Café / Konditorei,48.5335085,12.150526,39,Gewerbepark Nürnberg-Feucht,false,,,,,,,https://www.google.com/maps/place/The+Butcher/data=!4m7!3m6!1s0x479e2671130ed21d:0x940ef2cad8e60d11!8m2!3d48.5335085!4d12.150526!16s%2Fg%2F1wtbswk5!19sChIJHdIOE3EmnkcREQ3m2MryDpQ?authuser=0&hl=de&rclk=1,2026-05-13T20:09:27Z,active,success,
0x479e26787d86c461:0xb45ca3d44b17feaf,The Unicorne Inn,84028,,4.8,372,Bar / Kneipe,48.5279835,12.1405357,39,Gewerbepark Nürnberg-Feucht,false,,,,,,,https://www.google.com/maps/place/The+Unicorne+Inn/data=!4m7!3m6!1s0x479e26787d86c461:0xb45ca3d44b17feaf!8m2!3d48.5279835!4d12.1405357!16s%2Fg%2F1ptyqnwhx!19sChIJYcSGfXgmnkcRr_4XS9SjXLQ?authuser=0&hl=de&rclk=1,2026-05-13T20:23:04Z,active,success,
0x479e25ddbf8b0fa7:0x259ad1e286f0fd1e,Totaj Bäckerei,84028,,4.8,312,Bäckerei,48.5397427,12.1366746,39,Gewerbepark Nürnberg-Feucht,false,,,,,,,https://www.google.com/maps/place/Totaj+B%C3%A4ckerei/data=!4m7!3m6!1s0x479e25ddbf8b0fa7:0x259ad1e286f0fd1e!8m2!3d48.5397427!4d12.1366746!16s%2Fg%2F11h9bnffn6!19sChIJpw-Lv90lnkcRHv3whuLRmiU?authuser=0&hl=de&rclk=1,2026-05-13T20:24:39Z,active,success,
0x479e27ecd4afbf97:0x86139fb16b689d3e,"Trattoria Amalfi - Café, Bistro, Wine Bar",84028,,4.4,22,Restaurant,48.5405545,12.1500559,39,Gewerbepark Nürnberg-Feucht,false,,,,,,,"https://www.google.com/maps/place/Trattoria+Amalfi+-+Caf%C3%A9,+Bistro,+Wine+Bar/data=!4m7!3m6!1s0x479e27ecd4afbf97:0x86139fb16b689d3e!8m2!3d48.5405545!4d12.1500559!16s%2Fg%2F11x1nxfkdm!19sChIJl7-v1OwnnkcRPp1oa7GfE4Y?authuser=0&hl=de&rclk=1",2026-05-13T20:12:57Z,temporarily_closed,success,
0x479e27243e98296b:0x5b7da6ad38f6c77e,Turm Café Landshut,84028,,4.9,50,Café / Konditorei,48.546671,12.1526921,39,Gewerbepark Nürnberg-Feucht,false,,,,,,,https://www.google.com/maps/place/Turm+Caf%C3%A9+Landshut/data=!4m7!3m6!1s0x479e27243e98296b:0x5b7da6ad38f6c77e!8m2!3d48.546671!4d12.1526921!16s%2Fg%2F11y2h5_438!19sChIJaymYPiQnnkcRfsf2OK2mfVs?authuser=0&hl=de&rclk=1,2026-05-13T20:03:11Z,active,success,
0x479e267258eec1c9:0x890b13fd4f8ae516,VU & Friends Asian Fusion,84028,,4.4,885,Sushi,48.536634,12.1543695,39,Gewerbepark Nürnberg-Feucht,false,,,,,,,https://www.google.com/maps/place/VU+%26+Friends+Asian+Fusion/data=!4m7!3m6!1s0x479e267258eec1c9:0x890b13fd4f8ae516!8m2!3d48.536634!4d12.1543695!16s%2Fg%2F1q6683h13!19sChIJycHuWHImnkcRFuWKT_0TC4k?authuser=0&hl=de&rclk=1,2026-05-13T20:12:09Z,active,success,
0x479e2609224f0a8d:0xb87c06975e03e4d4,Via del Gusto Landshut,84028,,4.7,152,Restaurant,48.546572,12.1531271,39,Gewerbepark Nürnberg-Feucht,false,,,,,,,https://www.google.com/maps/place/Via+del+Gusto+Landshut/data=!4m7!3m6!1s0x479e2609224f0a8d:0xb87c06975e03e4d4!8m2!3d48.546572!4d12.1531271!16s%2Fg%2F11f12_758r!19sChIJjQpPIgkmnkcR1OQDXpcGfLg?authuser=0&hl=de&rclk=1,2026-05-13T20:21:42Z,active,success,
0x479e279d3db93b0f:0x785293caa63b8f6,Villa Portofino Landshut,84028,,4.5,32,Restaurant,48.5405545,12.1500559,39,Gewerbepark Nürnberg-Feucht,false,,,,,,,https://www.google.com/maps/place/Villa+Portofino+Landshut/data=!4m7!3m6!1s0x479e279d3db93b0f:0x785293caa63b8f6!8m2!3d48.5405545!4d12.1500559!16s%2Fg%2F11y0j_0qc7!19sChIJDzu5PZ0nnkcR9rhjqjwphQc?authuser=0&hl=de&rclk=1,2026-05-13T20:07:26Z,active,success,
0x479e2739b22b6917:0xcc30f5b2496fa4b0,"VinaFood Restaurant, Vietnamesische Küche & Sushi",84028,,4,94,Sushi,48.5430914,12.1485564,39,Gewerbepark Nürnberg-Feucht,false,,,,,,,"https://www.google.com/maps/place/VinaFood+Restaurant,+Vietnamesische+K%C3%BCche+%26+Sushi/data=!4m7!3m6!1s0x479e2739b22b6917:0xcc30f5b2496fa4b0!8m2!3d48.5430914!4d12.1485564!16s%2Fg%2F11j6zz8nry!19sChIJF2krsjknnkcRsKRvSbL1MMw?authuser=0&hl=de&rclk=1",2026-05-13T20:15:19Z,active,success,
0x479e26722d4d9d57:0xd691fc3ac0646881,WEINroom Vinothek - Bar & Bistro,84028,,4.6,34,Lebensmittel,48.5337961,12.1498497,39,Gewerbepark Nürnberg-Feucht,false,,,,,,,https://www.google.com/maps/place/WEINroom+Vinothek+-+Bar+%26+Bistro/data=!4m7!3m6!1s0x479e26722d4d9d57:0xd691fc3ac0646881!8m2!3d48.5337961!4d12.1498497!16s%2Fg%2F11b7gl6_5c!19sChIJV51NLXImnkcRgWhkwDr8kdY?authuser=0&hl=de&rclk=1,2026-05-13T20:09:58Z,active,success,
0x479e270035383521:0xd8575f65fb78fbb2,Wassana's Thai Imbiss,84028,,4.3,16,Asiatisch,48.5369764,12.1556213,39,Gewerbepark Nürnberg-Feucht,false,,,,,,,https://www.google.com/maps/place/Wassana%27s+Thai+Imbiss/data=!4m7!3m6!1s0x479e270035383521:0xd8575f65fb78fbb2!8m2!3d48.5369764!4d12.1556213!16s%2Fg%2F11y6gn90hq!19sChIJITU4NQAnnkcRsvt4-2VfV9g?authuser=0&hl=de&rclk=1,2026-05-13T20:14:14Z,active,success,
0x479e277de63dc6f5:0xccff9b294c9ef1ee,Weinstube Isarklause,84028,,4.5,94,Restaurant,48.5367016,12.1506722,39,Gewerbepark Nürnberg-Feucht,false,,,,,,,https://www.google.com/maps/place/Weinstube+Isarklause/data=!4m7!3m6!1s0x479e277de63dc6f5:0xccff9b294c9ef1ee!8m2!3d48.5367016!4d12.1506722!16s%2Fg%2F11kqtlzkhj!19sChIJ9cY95n0nnkcR7vGeTCmb_8w?authuser=0&hl=de&rclk=1,2026-05-13T20:11:27Z,active,success,
0x479e26736e314fcb:0x82161c88a2668147,Weißes Bräuhaus Zum Krenkl,84028,,3.1,473,Restaurant,48.5376822,12.1518873,39,Gewerbepark Nürnberg-Feucht,false,,,,,,,https://www.google.com/maps/place/Wei%C3%9Fes+Br%C3%A4uhaus+Zum+Krenkl/data=!4m7!3m6!1s0x479e26736e314fcb:0x82161c88a2668147!8m2!3d48.5376822!4d12.1518873!16s%2Fg%2F1tf80l98!19sChIJy08xbnMmnkcRR4FmoogcFoI?authuser=0&hl=de&rclk=1,2026-05-13T20:23:10Z,active,success,
0x4109661bc1208109:0x69f262747d997e42,Wintergarten Landshut,84028,,4.4,336,Bar / Kneipe,48.5322969,12.1489323,39,Gewerbepark Nürnberg-Feucht,false,,,,,,,https://www.google.com/maps/place/Wintergarten+Landshut/data=!4m7!3m6!1s0x4109661bc1208109:0x69f262747d997e42!8m2!3d48.5322969!4d12.1489323!16s%2Fg%2F11h0wjy6k!19sChIJCYEgwRtmCUERQn6ZfXRi8mk?authuser=0&hl=de&rclk=1,2026-05-13T20:07:50Z,active,success,
0x479e267238123683:0x8c26a07dcffb25fd,Wirtshaus zum Hofreiter,84028,,4.4,1026,Restaurant,48.5353431,12.1545982,39,Gewerbepark Nürnberg-Feucht,false,,,,,,,https://www.google.com/maps/place/Wirtshaus+zum+Hofreiter/data=!4m7!3m6!1s0x479e267238123683:0x8c26a07dcffb25fd!8m2!3d48.5353431!4d12.1545982!16s%2Fg%2F1tkksvts!19sChIJgzYSOHImnkcR_SX7z32gJow?authuser=0&hl=de&rclk=1,2026-05-13T20:07:05Z,active,success,
0x479e2500a7785225:0xca35ce46f483f996,Wirtshaus zum Krodinger,84028,,4.7,132,Restaurant,48.5304118,12.0870131,49,"Kornburg, Worzeldorf",false,,,,,,,https://www.google.com/maps/place/Wirtshaus+zum+Krodinger/data=!4m7!3m6!1s0x479e2500a7785225:0xca35ce46f483f996!8m2!3d48.5304118!4d12.0870131!16s%2Fg%2F1tv233zv!19sChIJJVJ4pwAlnkcRlvmD9EbONco?authuser=0&hl=de&rclk=1,2026-05-13T20:22:51Z,active,success,
0x479e27eabcc71931:0x71b95082bce879b3,Wokwerk,84028,,4.9,41,Asiatisch,48.5375351,12.1526155,39,Gewerbepark Nürnberg-Feucht,false,,,,,,,https://www.google.com/maps/place/Wokwerk/data=!4m7!3m6!1s0x479e27eabcc71931:0x71b95082bce879b3!8m2!3d48.5375351!4d12.1526155!16s%2Fg%2F11ytq8vtpx!19sChIJMRnHvOonnkcRs3novIJQuXE?authuser=0&hl=de&rclk=1,2026-05-13T20:01:55Z,active,success,
0x479e25e44b2ff103:0x6924ea09d7459aea,YORMA'S Landshut,84028,,4,149,Bäckerei,48.5471716,12.1365873,39,Gewerbepark Nürnberg-Feucht,false,,,,,,,https://www.google.com/maps/place/YORMA%27S+Landshut/data=!4m7!3m6!1s0x479e25e44b2ff103:0x6924ea09d7459aea!8m2!3d48.5471716!4d12.1365873!16s%2Fg%2F1tf56w7m!19sChIJA_EvS-QlnkcR6ppF1wnqJGk?authuser=0&hl=de&rclk=1,2026-05-13T20:26:10Z,active,success,
0x479e26738a79c13b:0x550fd1dbab488aa7,ZAP Biergarten,84028,,4.5,127,Bar / Kneipe,48.5361,12.15014,39,Gewerbepark Nürnberg-Feucht,false,,,,,,,https://www.google.com/maps/place/ZAP+Biergarten/data=!4m7!3m6!1s0x479e26738a79c13b:0x550fd1dbab488aa7!8m2!3d48.5361!4d12.15014!16s%2Fg%2F11cjnp2q9_!19sChIJO8F5inMmnkcRp4pIq9vRD1U?authuser=0&hl=de&rclk=1,2026-05-13T20:13:11Z,temporarily_closed,success,
0x479e275da7a06169:0xf602e53de2cf40a4,Zentrale zum Rieblwirt,84028,,4.3,205,Restaurant,48.5367565,12.1591555,39,Gewerbepark Nürnberg-Feucht,false,,,,,,,https://www.google.com/maps/place/Zentrale+zum+Rieblwirt/data=!4m7!3m6!1s0x479e275da7a06169:0xf602e53de2cf40a4!8m2!3d48.5367565!4d12.1591555!16s%2Fg%2F11bc8d0f5j!19sChIJaWGgp10nnkcRpEDP4j3lAvY?authuser=0&hl=de&rclk=1,2026-05-13T20:22:38Z,active,success,
