id,name,postcode,address,rating,reviewCount,category,lat,lng,bezirkId,bezirkName,hasDefamationNotice,removedMin,removedMax,removedEstimate,deletionRatioPct,realRatingAdjusted,removedText,url,readAt,placeState,status,error
0x479f573f2c37b67b:0x6c0e9b66b28bf696,-//-,90402,"Mostgasse 6, 90402 Nürnberg",4.9,48,,49.4496827,11.0673204,05,Himpfelshof,false,,,,,,,https://www.google.com/maps/place/-%2F%2F-/data=!4m7!3m6!1s0x479f573f2c37b67b:0x6c0e9b66b28bf696!8m2!3d49.4496827!4d11.0673204!16s%2Fg%2F11m5zhtjr6!19sChIJe7Y3LD9Xn0cRlvaLsmabDmw?authuser=0&hl=de&rclk=1,2026-05-03T17:54:05Z,permanently_closed,success,
0x479f57ff41c02fff:0xb972de8c9a239404,24 Sieben Shop,90402,"Dr.-Kurt-Schumacher-Straße 32, 90402 Nürnberg",3.4,29,Lebensmittel,49.4492727,11.0726784,01,"Altstadt, St. Lorenz",false,,,,,,,https://www.google.com/maps/place/24+Sieben+Shop/data=!4m7!3m6!1s0x479f57ff41c02fff:0xb972de8c9a239404!8m2!3d49.4492727!4d11.0726784!16s%2Fg%2F11ts42b28z!19sChIJ_y_AQf9Xn0cRBJQjmozecrk?authuser=0&hl=de&rclk=1,2026-05-03T19:08:42Z,active,success,
0x479f57ec1db66c05:0x186574174a8f8f9,"24/7 Kiosk ""The SPÄTI"" am Hauptmarkt",90402,"Königstraße 2, 90402 Nürnberg",4.8,136,Lebensmittel,49.4527092,11.0776465,01,"Altstadt, St. Lorenz",false,,,,,,,https://www.google.com/maps/place/24%2F7+Kiosk+%22The+SP%C3%84TI%22+am+Hauptmarkt/data=!4m7!3m6!1s0x479f57ec1db66c05:0x186574174a8f8f9!8m2!3d49.4527092!4d11.0776465!16s%2Fg%2F11vyrkcr22!19sChIJBWy2HexXn0cR-fiodEFXhgE?authuser=0&hl=de&rclk=1,2026-05-03T19:04:09Z,active,success,
0x479f576c42d60457:0xbae4a7df21242bbf,24h Automaten-Nürnberg - Shisha Liquids & E-Zigaretten,90402,"Färberstraße 21, 90402 Nürnberg",4.9,157,Bar / Kneipe,49.448585,11.072499,03,Tafelhof,false,,,,,,,https://www.google.com/maps/place/24h+Automaten-N%C3%BCrnberg+-+Shisha+Liquids+%26+E-Zigaretten/data=!4m7!3m6!1s0x479f576c42d60457:0xbae4a7df21242bbf!8m2!3d49.448585!4d11.072499!16s%2Fg%2F11sdf09gyl!19sChIJVwTWQmxXn0cRvyskId-n5Lo?authuser=0&hl=de&rclk=1,2026-05-03T19:31:38Z,active,success,
0x479f573fd5009671:0x574d4fda4903bb2e,2BITES Nürnberg,90402,"Färberstraße 11, 90402 Nürnberg",4.7,130,Burger,49.4497362,11.0728739,01,"Altstadt, St. Lorenz",true,2,5,3.5,2.62,4.603,Zwei bis fünf Bewertungen aufgrund von Beschwerden wegen Diffamierung entfernt.,https://www.google.com/maps/place/2BITES+N%C3%BCrnberg/data=!4m7!3m6!1s0x479f573fd5009671:0x574d4fda4903bb2e!8m2!3d49.4497362!4d11.0728739!16s%2Fg%2F11yq65mrfj!19sChIJcZYA1T9Xn0cRLrsDSdpPTVc?authuser=0&hl=de&rclk=1,2026-05-03T12:30:04Z,active,success,
0x479f57002b70666d:0xe1955c8291107701,480GRAD X PIANOBAR,90402,"Karl-Grillenberger-Straße 28, 90402 Nürnberg",4.5,112,Pizzeria,49.451611,11.069698,01,"Altstadt, St. Lorenz",false,,,,,,,https://www.google.com/maps/place/480GRAD+X+PIANOBAR/data=!4m7!3m6!1s0x479f57002b70666d:0xe1955c8291107701!8m2!3d49.451611!4d11.069698!16s%2Fg%2F11ldhxss8p!19sChIJbWZwKwBXn0cRAXcQkYJcleE?authuser=0&hl=de&rclk=1,2026-05-03T17:49:27Z,active,success,
0x479f57eb67ae1e23:0x2e07bb454941dbb4,480grad neapolitan Pizza & Bar,90402,"Kappengasse 13, 90402 Nürnberg",4.5,1644,Pizzeria,49.4517963,11.0696814,01,"Altstadt, St. Lorenz",false,,,,,,,https://www.google.com/maps/place/480grad+neapolitan+Pizza+%26+Bar/data=!4m7!3m6!1s0x479f57eb67ae1e23:0x2e07bb454941dbb4!8m2!3d49.4517963!4d11.0696814!16s%2Fg%2F11fgm6zmwt!19sChIJIx6uZ-tXn0cRtNtBSUW7By4?authuser=0&hl=de&rclk=1,2026-05-03T12:34:43Z,active,success,
0x479f57a68b7a4619:0xac08672ace41c496,4hertz Club,90402,"Königstraße 39, 90402 Nürnberg",4.2,12,Club / Diskothek,49.4500766,11.0796961,01,"Altstadt, St. Lorenz",false,,,,,,,https://www.google.com/maps/place/4hertz+Club/data=!4m7!3m6!1s0x479f57a68b7a4619:0xac08672ace41c496!8m2!3d49.4500766!4d11.0796961!16s%2Fg%2F11f24x43zq!19sChIJGUZ6i6ZXn0cRlsRBzipnCKw?authuser=0&hl=de&rclk=1,2026-05-03T17:58:59Z,permanently_closed,success,
0x479f5730248e515f:0x706eb015cc72176d,60 seconds to napoli Nürnberg,90402,"Färberstraße 10, 90402 Nürnberg",4.5,4596,Pizzeria,49.4497571,11.0724782,01,"Altstadt, St. Lorenz",true,6,10,8,0.17,4.494,Sechs bis zehn Bewertungen aufgrund von Beschwerden wegen Diffamierung entfernt.,"https://www.google.com/maps/place/60+seconds+to+napoli+N%C3%BCrnberg/@49.4497571,11.0724782,17z/data=!3m1!4b1!4m6!3m5!1s0x479f5730248e515f:0x706eb015cc72176d!8m2!3d49.4497571!4d11.0724782!16s%2Fg%2F11xrgh3nxz?entry=ttu&g_ep=EgoyMDI2MDUwMi4wIKXMDSoASAFQAw%3D%3D&hl=de",2026-05-07T08:37:50Z,active,success,
0x479f57b06224e14b:0x64f98ca5f012a6df,60's SMASH BURGER,90402,"Vordere Sterngasse 21, 90402 Nürnberg",4.7,2264,Burger,49.4474367,11.0782891,03,Tafelhof,true,51,100,75.5,3.23,4.581,51 bis 100 Bewertungen aufgrund von Beschwerden wegen Diffamierung entfernt.,https://www.google.com/maps/place/60%27s+SMASH+BURGER/data=!4m7!3m6!1s0x479f57b06224e14b:0x64f98ca5f012a6df!8m2!3d49.4474367!4d11.0782891!16s%2Fg%2F11lnk6qkhv!19sChIJS-EkYrBXn0cR36YS8KWM-WQ?authuser=0&hl=de&rclk=1,2026-05-03T12:31:34Z,active,success,
0x479f579339f3f56b:0xdf2e9c11c0fac18a,ALANO Pizza | Pasta | Burger | Salat,90402,"Neudörferstraße 14, 90402 Nürnberg",4.7,231,Pizzeria,49.4487373,11.0891835,02,Marienvorstadt,false,,,,,,,https://www.google.com/maps/place/ALANO+Pizza+%7C+Pasta+%7C+Burger+%7C+Salat/data=!4m7!3m6!1s0x479f579339f3f56b:0xdf2e9c11c0fac18a!8m2!3d49.4487373!4d11.0891835!16s%2Fg%2F11kpyvmysb!19sChIJa_XzOZNXn0cRisH6wBGcLt8?authuser=0&hl=de&rclk=1,2026-05-03T12:29:41Z,active,success,
0x479f5700072acde9:0x5a78a862ed8ed05,ANYTIME Café,90402,"Reindelstraße 13, 90402 Nürnberg",,0,Café / Konditorei,49.4484529,11.0906307,11,Glockenhof,false,,,,,,,"https://www.google.com/maps/place/ANYTIME+Caf%C3%A9/@49.4484529,11.0906307,17z/data=!3m1!4b1!4m6!3m5!1s0x479f5700072acde9:0x5a78a862ed8ed05!8m2!3d49.4484529!4d11.0906307!16s%2Fg%2F11mz9pyr7w?entry=ttu&g_ep=EgoyMDI2MDUwMi4wIKXMDSoASAFQAw%3D%3D&hl=de",2026-05-07T08:46:50Z,no_public_reviews,success,
0x479f57ddb070b79b:0x2b695e34193909f,ATLAS SHERS,90402,,4.6,67,Friseur / Kosmetik,49.4397724,10.8684501,61,Gebersdorf,false,,,,,,,https://www.google.com/maps/place/ATLAS+SHERS/data=!4m7!3m6!1s0x479f57ddb070b79b:0x2b695e34193909f!8m2!3d49.4397724!4d10.8684501!16s%2Fg%2F11rn26qb8c!19sChIJm7dwsN1Xn0cRn5CTQeOVtgI?authuser=0&hl=de&rclk=1,2026-05-03T18:41:20Z,active,success,
0x479f57a85a626795:0x2a4acac8209910a7,Achilleus Men’s Spa & Gaysauna,90402,"Färberstraße 21A, 90402 Nürnberg",4.7,638,Club / Diskothek,49.4486176,11.0724434,03,Tafelhof,false,,,,,,,https://www.google.com/maps/place/Achilleus+Men%E2%80%99s+Spa+%26+Gaysauna/data=!4m7!3m6!1s0x479f57a85a626795:0x2a4acac8209910a7!8m2!3d49.4486176!4d11.0724434!16s%2Fg%2F11b88phnzk!19sChIJlWdiWqhXn0cRpxCZIMjKSio?authuser=0&hl=de&rclk=1,2026-05-03T17:46:02Z,active,success,
0x479f57a8f5f51595:0x636b38d75d0e1003,Adina Apartment Hotel Nürnberg,90402,"Dr.-Kurt-Schumacher-Straße 1-7, 90402 Nürnberg",4.6,1535,Hotel,49.4491639,11.0734906,01,"Altstadt, St. Lorenz",false,,,,,,,https://www.google.com/maps/place/Adina+Apartment+Hotel+N%C3%BCrnberg/data=!4m10!3m9!1s0x479f57a8f5f51595:0x636b38d75d0e1003!5m2!4m1!1i2!8m2!3d49.4491639!4d11.0734906!16s%2Fg%2F11c1pgbrwd!19sChIJlRX19ahXn0cRAxAOXdc4a2M?authuser=0&hl=de&rclk=1,2026-05-03T18:00:20Z,active,success,
0x479f57a5e69fc18f:0x451029c45c481a1d,Admiral Boutique Kino Deluxe,90402,"Königstraße 11, 90402 Nürnberg",4.7,2050,Sonstiges,49.451668,11.078052,01,"Altstadt, St. Lorenz",true,11,20,15.5,0.75,4.672,11 bis 20 Bewertungen aufgrund von Beschwerden wegen Diffamierung entfernt.,https://www.google.com/maps/place/Admiral+Boutique+Kino+Deluxe/data=!4m7!3m6!1s0x479f57a5e69fc18f:0x451029c45c481a1d!8m2!3d49.451668!4d11.078052!16s%2Fg%2F1tfr95h6!19sChIJj8Gf5qVXn0cRHRpIXMQpEEU?authuser=0&hl=de&rclk=1,2026-05-03T17:53:25Z,active,success,
0x479f577ee24387ef:0x75297c2549720fc,Al LAYALY2 Bar,90402,"Marienstraße 14, 90402 Nürnberg",5,12,Bar / Kneipe,49.4479727,11.0878077,11,Glockenhof,false,,,,,,,https://www.google.com/maps/place/Al+LAYALY2+Bar/data=!4m7!3m6!1s0x479f577ee24387ef:0x75297c2549720fc!8m2!3d49.4479727!4d11.0878077!16s%2Fg%2F11sv4jktn5!19sChIJ74dD4n5Xn0cR_CCXVMKXUgc?authuser=0&hl=de&rclk=1,2026-05-03T17:40:22Z,active,success,
0x479f57a7aead23f1:0x40615c424fa38b1e,Alan Friseursalon,90402,"Hallpl. 11, 90402 Nürnberg",4.7,93,Friseur / Kosmetik,49.4490494,11.0785805,01,"Altstadt, St. Lorenz",false,,,,,,,https://www.google.com/maps/place/Alan+Friseursalon/data=!4m7!3m6!1s0x479f57a7aead23f1:0x40615c424fa38b1e!8m2!3d49.4490494!4d11.0785805!16s%2Fg%2F11b6dq0255!19sChIJ8SOtrqdXn0cRHoujT0JcYUA?authuser=0&hl=de&rclk=1,2026-05-03T18:15:29Z,active,success,
0x479f57a9ed325ba9:0x363f106db0c6fa07,Albergo Hotel GmbH,90402,"Engelhardsgasse 12, 90402 Nürnberg",4.5,2,Hotel,49.4482509,11.0694304,04,Gostenhof,false,,,,,,,https://www.google.com/maps/place/Albergo+Hotel+GmbH/data=!4m7!3m6!1s0x479f57a9ed325ba9:0x363f106db0c6fa07!8m2!3d49.4482509!4d11.0694304!16s%2Fg%2F11g6rkkwtz!19sChIJqVsy7alXn0cRB_rGsG0QPzY?authuser=0&hl=de&rclk=1,2026-05-03T18:02:53Z,active,success,
0x479f57f05670b413:0x23a9a5ab8a7cb9dd,All 4 One Studio,90402,"Breite G. 6, 90402 Nürnberg",4.9,28,Sonstiges,49.4500962,11.0774484,01,"Altstadt, St. Lorenz",false,,,,,,,https://www.google.com/maps/place/All+4+One+Studio/data=!4m7!3m6!1s0x479f57f05670b413:0x23a9a5ab8a7cb9dd!8m2!3d49.4500962!4d11.0774484!16s%2Fg%2F11r32yk4v3!19sChIJE7RwVvBXn0cR3bl8iqulqSM?authuser=0&hl=de&rclk=1,2026-05-03T18:56:40Z,active,success,
0x479f57a8f5f51595:0xe5e2f1b35e6a0428,Alto Restaurant im Adina Apartment Hotel Nürnberg,90402,"Dr.-Kurt-Schumacher-Straße 1, 90402 Nürnberg",5,4,Restaurant,49.4491639,11.0734906,01,"Altstadt, St. Lorenz",false,,,,,,,https://www.google.com/maps/place/Alto+Restaurant+im+Adina+Apartment+Hotel+N%C3%BCrnberg/data=!4m7!3m6!1s0x479f57a8f5f51595:0xe5e2f1b35e6a0428!8m2!3d49.4491639!4d11.0734906!16s%2Fg%2F11g1pp4l5w!19sChIJlRX19ahXn0cRKARqXrPx4uU?authuser=0&hl=de&rclk=1,2026-05-03T17:28:30Z,active,success,
0x479f57a84cb747b9:0x75195857cc89923b,Altstadt Pizzeria Nürnberg,90402,"Färberstraße 33, 90402 Nürnberg",4.4,785,Pizzeria,49.4483674,11.0722987,03,Tafelhof,false,,,,,,,https://www.google.com/maps/place/Altstadt+Pizzeria+N%C3%BCrnberg/data=!4m7!3m6!1s0x479f57a84cb747b9:0x75195857cc89923b!8m2!3d49.4483674!4d11.0722987!16s%2Fg%2F11fylzcrv7!19sChIJuUe3TKhXn0cRO5KJzFdYGXU?authuser=0&hl=de&rclk=1,2026-05-03T12:17:27Z,active,success,
0x479f57a9ebec14a9:0x9301041976bb86c9,American Table-Dance White Butterfly,90402,"Engelhardsgasse 22, 90402 Nürnberg",3.6,30,Sonstiges,49.4479635,11.0696142,04,Gostenhof,false,,,,,,,https://www.google.com/maps/place/American+Table-Dance+White+Butterfly/data=!4m7!3m6!1s0x479f57a9ebec14a9:0x9301041976bb86c9!8m2!3d49.4479635!4d11.0696142!16s%2Fg%2F1td0fhcm!19sChIJqRTs66lXn0cRyYa7dhkEAZM?authuser=0&hl=de&rclk=1,2026-05-03T17:46:42Z,active,success,
0x479f5793ccdb677b:0x2ba24b19a190b8bb,Anjappar Chettinad Indian Restaurant,90402,"Königstraße 59, 90402 Nürnberg",4.6,1054,Asiatisch,49.4490865,11.0799993,01,"Altstadt, St. Lorenz",true,101,150,125.5,10.64,4.217,101 bis 150 Bewertungen aufgrund von Beschwerden wegen Diffamierung entfernt.,https://www.google.com/maps/place/Anjappar+Chettinad+Indian+Restaurant/data=!4m7!3m6!1s0x479f5793ccdb677b:0x2ba24b19a190b8bb!8m2!3d49.4490865!4d11.0799993!16s%2Fg%2F11y24kbkfk!19sChIJe2fbzJNXn0cRu7iQoRlLois?authuser=0&hl=de&rclk=1,2026-05-03T17:35:15Z,active,success,
0x479f570018422d8d:0xbf21f56324357534,Anytime Pilates Studio,90402,"Reindelstraße 13, 90402 Nürnberg",4.1,23,Fitness / Sport,49.4484529,11.0906307,11,Glockenhof,true,2,5,3.5,13.21,3.691,Zwei bis fünf Bewertungen aufgrund von Beschwerden wegen Diffamierung entfernt.,https://www.google.com/maps/place/Anytime+Pilates+Studio/data=!4m7!3m6!1s0x479f570018422d8d:0xbf21f56324357534!8m2!3d49.4484529!4d11.0906307!16s%2Fg%2F11x_pdr2xp!19sChIJjS1CGABXn0cRNHU1JGP1Ib8?authuser=0&hl=de&rclk=1,2026-05-03T18:54:05Z,active,success,
0x479f5749aff7c0c9:0x37dfacfca41ca6f2,Apollo Apartments,90402,"Vordere Sterngasse 25-27, 90402 Nürnberg",2.5,30,Hotel,49.4471886,11.0782652,03,Tafelhof,false,,,,,,,https://www.google.com/maps/place/Apollo+Apartments/data=!4m10!3m9!1s0x479f5749aff7c0c9:0x37dfacfca41ca6f2!5m2!4m1!1i2!8m2!3d49.4471886!4d11.0782652!16s%2Fg%2F11hyfvknly!19sChIJycD3r0lXn0cR8qYcpPys3zc?authuser=0&hl=de&rclk=1,2026-05-03T18:06:04Z,active,success,
0x479f57a6f10ed485:0xbbe8ab9091f2760f,Apotheke Theatergasse,90402,"Theatergasse 21, 90402 Nürnberg",2.9,40,Apotheke,49.4495378,11.0799523,01,"Altstadt, St. Lorenz",false,,,,,,,https://www.google.com/maps/place/Apotheke+Theatergasse/data=!4m7!3m6!1s0x479f57a6f10ed485:0xbbe8ab9091f2760f!8m2!3d49.4495378!4d11.0799523!16s%2Fg%2F1v6wn9h5!19sChIJhdQO8aZXn0cRD3bykZCr6Ls?authuser=0&hl=de&rclk=1,2026-05-03T19:21:17Z,active,success,
0x479f575bfc601b3b:0x5d5e4038d6d76aaa,Arjon Döner,90402,"Königstraße 69, 90402 Nürnberg",4.7,1558,Döner / Kebab,49.448634,11.0803801,01,"Altstadt, St. Lorenz",false,,,,,,,https://www.google.com/maps/place/Arjon+D%C3%B6ner/data=!4m7!3m6!1s0x479f575bfc601b3b:0x5d5e4038d6d76aaa!8m2!3d49.448634!4d11.0803801!16s%2Fg%2F11pxs32lmy!19sChIJOxtg_FtXn0cRqmrX1jhAXl0?authuser=0&hl=de&rclk=1,2026-05-03T12:14:29Z,active,success,
0x479f57abe1b967d9:0xfa37505c3683211d,Artothek Nürnberg E.V.,90402,"Königstraße 93, 90402 Nürnberg",4.8,4,Imbiss,49.4484109,11.0817605,03,Tafelhof,false,,,,,,,https://www.google.com/maps/place/Artothek+N%C3%BCrnberg+E.V./data=!4m7!3m6!1s0x479f57abe1b967d9:0xfa37505c3683211d!8m2!3d49.4484109!4d11.0817605!16s%2Fg%2F1tfxfp95!19sChIJ2We54atXn0cRHSGDNlxQN_o?authuser=0&hl=de&rclk=1,2026-05-03T12:33:45Z,active,success,
0x479f57a622a44cc9:0xeb80ffe72f6a5825,Asia China Restaurant,90402,"Breite G. 16, 90402 Nürnberg",4.4,504,Asiatisch,49.4501149,11.0766525,01,"Altstadt, St. Lorenz",false,,,,,,,https://www.google.com/maps/place/Asia+China+Restaurant/data=!4m7!3m6!1s0x479f57a622a44cc9:0xeb80ffe72f6a5825!8m2!3d49.4501149!4d11.0766525!16s%2Fg%2F11b6dpfrwn!19sChIJyUykIqZXn0cRJVhqL-f_gOs?authuser=0&hl=de&rclk=1,2026-05-03T12:18:49Z,active,success,
0x479f57a17243e899:0x2e76e4866481ed3c,Asia City Express,90402,"Gleißbühlstraße 7, 90402 Nürnberg",3.5,264,Asiatisch,49.4492559,11.0852183,02,Marienvorstadt,false,,,,,,,https://www.google.com/maps/place/Asia+City+Express/data=!4m7!3m6!1s0x479f57a17243e899:0x2e76e4866481ed3c!8m2!3d49.4492559!4d11.0852183!16s%2Fg%2F1hc9zhbz9!19sChIJmehDcqFXn0cRPO2BZIbkdi4?authuser=0&hl=de&rclk=1,2026-05-03T12:32:34Z,active,success,
0x479f579b01344543:0x7100cca57d32573c,Asia Factory,90402,"Färberstraße 58, 90402 Nürnberg",4.8,56,Sonstiges,49.4477682,11.0711697,03,Tafelhof,false,,,,,,,https://www.google.com/maps/place/Asia+Factory/data=!4m7!3m6!1s0x479f579b01344543:0x7100cca57d32573c!8m2!3d49.4477682!4d11.0711697!16s%2Fg%2F11wft6krst!19sChIJQ0U0AZtXn0cRPFcyfaXMAHE?authuser=0&hl=de&rclk=1,2026-05-03T19:09:22Z,active,success,
0x479f57a9bacbaeb3:0x5a3b486688da8a33,Asia Fast Food Nürnberg,90402,"Zirkelschmiedsgasse 9, 90402 Nürnberg",4.7,99,Imbiss,49.4487531,11.0716499,03,Tafelhof,false,,,,,,,https://www.google.com/maps/place/Asia+Fast+Food+N%C3%BCrnberg/data=!4m7!3m6!1s0x479f57a9bacbaeb3:0x5a3b486688da8a33!8m2!3d49.4487531!4d11.0716499!16s%2Fg%2F11bzyphzh2!19sChIJs67LuqlXn0cRM4raiGZIO1o?authuser=0&hl=de&rclk=1,2026-05-03T12:20:01Z,active,success,
0x410c9f014b394fd3:0x4c1225eb5dcc0e1c,Asia Imbiss MEI-KA,90402,"Färberstraße 50, 90402 Nürnberg",4.1,284,Imbiss,49.4480239,11.0718401,03,Tafelhof,false,,,,,,,https://www.google.com/maps/place/Asia+Imbiss+MEI-KA/data=!4m7!3m6!1s0x410c9f014b394fd3:0x4c1225eb5dcc0e1c!8m2!3d49.4480239!4d11.0718401!16s%2Fg%2F12lt_ylkj!19sChIJ0085SwGfDEERHA7MXeslEkw?authuser=0&hl=de&rclk=1,2026-05-03T12:30:32Z,active,success,
0x479f57a9cc3188a7:0xe60937902aee491d,Asia Supermarket,90402,"Frauentormauer 66, 90402 Nürnberg",4.1,81,Lebensmittel,49.4476835,11.0710307,03,Tafelhof,false,,,,,,,https://www.google.com/maps/place/Asia+Supermarket/data=!4m7!3m6!1s0x479f57a9cc3188a7:0xe60937902aee491d!8m2!3d49.4476835!4d11.0710307!16s%2Fg%2F11byxgxjyr!19sChIJp4gxzKlXn0cRHUnuKpA3CeY?authuser=0&hl=de&rclk=1,2026-05-03T17:23:36Z,active,success,
0x479f57a0d0eaaec9:0xf6740b47bf9b5f2f,Atelier Bar,90402,"Bahnhofstraße 1, 90402 Nürnberg",4.4,125,Bar / Kneipe,49.447856,11.0825374,03,Tafelhof,false,,,,,,,https://www.google.com/maps/place/Atelier+Bar/data=!4m7!3m6!1s0x479f57a0d0eaaec9:0xf6740b47bf9b5f2f!8m2!3d49.447856!4d11.0825374!16s%2Fg%2F1tl_kq7w!19sChIJya7q0KBXn0cRL1-bv0cLdPY?authuser=0&hl=de&rclk=1,2026-05-03T12:28:48Z,active,success,
0x479f57a8c63864d7:0x9d77f1628fe701d,Atlantik Döner,90402,"Karolinenstraße 45 Brunnengasse Ecke, Krebsgasse, 90402 Nürnberg",3.7,1700,Döner / Kebab,49.4504863,11.0749706,01,"Altstadt, St. Lorenz",false,,,,,,,https://www.google.com/maps/place/Atlantik+D%C3%B6ner/data=!4m7!3m6!1s0x479f57a8c63864d7:0x9d77f1628fe701d!8m2!3d49.4504863!4d11.0749706!16s%2Fg%2F12630hvj6!19sChIJ12Q4xqhXn0cRHXD-KBZ_1wk?authuser=0&hl=de&rclk=1,2026-05-03T12:31:24Z,active,success,
0x479f57e9ffeb6bb9:0x8acad18fe1234cf6,Auckland Coffee,90402,"Königstraße 2, 90402 Nürnberg",4.6,1056,Café / Konditorei,49.4524244,11.077317,01,"Altstadt, St. Lorenz",true,1,1,1,0.09,4.597,Eine Bewertung aufgrund einer Beschwerde wegen Diffamierung entfernt.,https://www.google.com/maps/place/Auckland+Coffee/data=!4m7!3m6!1s0x479f57e9ffeb6bb9:0x8acad18fe1234cf6!8m2!3d49.4524244!4d11.077317!16s%2Fg%2F11rkfszv4k!19sChIJuWvr_-lXn0cR9kwj4Y_Ryoo?authuser=0&hl=de&rclk=1,2026-05-03T12:14:35Z,active,success,
0x479f57a1a5e190e7:0x3a75d54a2491d622,B&B HOTEL Nürnberg-Hbf,90402,"Marienstraße 10, 90402 Nürnberg",4.2,2216,Hotel,49.448627,11.085778,02,Marienvorstadt,false,,,,,,,https://www.google.com/maps/place/B%26B+HOTEL+N%C3%BCrnberg-Hbf/data=!4m7!3m6!1s0x479f57a1a5e190e7:0x3a75d54a2491d622!8m2!3d49.448627!4d11.085778!16s%2Fg%2F1ptvxzd0n!19sChIJ55DhpaFXn0cRItaRJErVdTo?authuser=0&hl=de&rclk=1,2026-05-03T17:30:27Z,active,success,
0x479f57a1a62197a7:0x3a75d54a2491d622,B&B HOTEL Nürnberg-Hbf,90402,"Marienstraße 10, 90402 Nürnberg",4.2,2216,Hotel,49.448627,11.085778,02,Marienvorstadt,false,,,,,,,https://www.google.com/maps/place/B%26B+HOTEL+N%C3%BCrnberg-Hbf/data=!4m10!3m9!1s0x479f57a1a62197a7:0x3a75d54a2491d622!5m2!4m1!1i2!8m2!3d49.448627!4d11.085778!16s%2Fg%2F1ptvxzd0n!19sChIJp5chpqFXn0cRItaRJErVdTo?authuser=0&hl=de&rclk=1,2026-05-04T01:01:13Z,active,success,
0x479f57a0dd6c8abf:0xf9ed059aada60ada,BA Beef Club,90402,"Hopfenstraße 6, 90402 Nürnberg",4.4,184,Café / Konditorei,49.4476591,11.0832972,03,Tafelhof,false,,,,,,,https://www.google.com/maps/place/BA+Beef+Club/data=!4m7!3m6!1s0x479f57a0dd6c8abf:0xf9ed059aada60ada!8m2!3d49.4476591!4d11.0832972!16s%2Fg%2F1tftd9tq!19sChIJv4ps3aBXn0cR2gqmrZoF7fk?authuser=0&hl=de&rclk=1,2026-05-03T17:21:40Z,temporarily_closed,success,
0x479f57a72478d327:0x1bb7262170175d33,BALKON Nürnberg,90402,"Königstor 2, 90402 Nürnberg",4.7,593,Bar / Kneipe,49.4478063,11.0814466,03,Tafelhof,false,,,,,,,https://www.google.com/maps/place/BALKON+N%C3%BCrnberg/data=!4m7!3m6!1s0x479f57a72478d327:0x1bb7262170175d33!8m2!3d49.4478063!4d11.0814466!16s%2Fg%2F1hc3d2ww8!19sChIJJ9N4JKdXn0cRM10XcCEmtxs?authuser=0&hl=de&rclk=1,2026-05-03T12:18:55Z,active,success,
0x479f57d919170221:0xf7f019d2e4e5b698,BAR POUPETTE,90402,"Johannesgasse 22, 90402 Nürnberg",4.8,38,Bar / Kneipe,49.4494781,11.0801666,01,"Altstadt, St. Lorenz",true,6,10,8,17.39,4.139,Sechs bis zehn Bewertungen aufgrund von Beschwerden wegen Diffamierung entfernt.,https://www.google.com/maps/place/BAR+POUPETTE/data=!4m7!3m6!1s0x479f57d919170221:0xf7f019d2e4e5b698!8m2!3d49.4494781!4d11.0801666!16s%2Fg%2F11yrql4kb8!19sChIJIQIXGdlXn0cRmLbl5NIZ8Pc?authuser=0&hl=de&rclk=1,2026-05-03T17:36:53Z,active,success,
0x479f573a5fe2d0e5:0xac496e3a9ee2d302,BAR STAZIONE,90402,"Bahnhofstraße 12, 90402 Nürnberg",,0,Bar / Kneipe,49.4470068,11.0858634,11,Glockenhof,false,,,,,,,https://www.google.com/maps/place/BAR+STAZIONE/data=!4m7!3m6!1s0x479f573a5fe2d0e5:0xac496e3a9ee2d302!8m2!3d49.4470068!4d11.0858634!16s%2Fg%2F11z4wxw_8y!19sChIJ5dDiXzpXn0cRAtPinjpuSaw?authuser=0&hl=de&rclk=1,2026-05-03T17:43:38Z,no_public_reviews,success,
0x479f57d3d6332f11:0x40c1cd2557d68930,BASECOFFEE® Nürnberg,90402,"Bankgasse 3, 90402 Nürnberg",4.7,1948,Café / Konditorei,49.4517557,11.0787427,01,"Altstadt, St. Lorenz",true,6,10,8,0.41,4.685,Sechs bis zehn Bewertungen aufgrund von Beschwerden wegen Diffamierung entfernt.,https://www.google.com/maps/place/BASECOFFEE%C2%AE+N%C3%BCrnberg/data=!4m7!3m6!1s0x479f57d3d6332f11:0x40c1cd2557d68930!8m2!3d49.4517557!4d11.0787427!16s%2Fg%2F11v10kwlw3!19sChIJES8z1tNXn0cRMInWVyXNwUA?authuser=0&hl=de&rclk=1,2026-05-03T12:23:30Z,active,success,
0x479f57005dc7619b:0x9671c267e9605bf7,BISHA Bar,90402,"Engelhardsgasse 9, 90402 Nürnberg",,,Bar / Kneipe,49.4486205,11.0697164,03,Tafelhof,false,,,,,,,https://www.google.com/maps/place/BISHA+Bar/data=!4m7!3m6!1s0x479f57005dc7619b:0x9671c267e9605bf7!8m2!3d49.4486205!4d11.0697164!16s%2Fg%2F11ww85w4j1!19sChIJm2HHXQBXn0cR91tg6WfCcZY?authuser=0&hl=de&rclk=1,2026-05-03T17:46:23Z,active,success,
0x479f57a9a42e8273:0xe90951540e19b91d,BOHO LOUNGE Nürnberg,90402,"Jakobstraße 53, 90402 Nürnberg",4.9,54,Club / Diskothek,49.4490494,11.0709786,03,Tafelhof,false,,,,,,,https://www.google.com/maps/place/BOHO+LOUNGE+N%C3%BCrnberg/data=!4m7!3m6!1s0x479f57a9a42e8273:0xe90951540e19b91d!8m2!3d49.4490494!4d11.0709786!16s%2Fg%2F11c59xgf7x!19sChIJc4IupKlXn0cRHbkZDlRRCek?authuser=0&hl=de&rclk=1,2026-05-03T17:51:33Z,active,success,
0x479f5700746bad55:0xdfb12dd62174053b,Babass Döner by Kubii,90402,"Färberstraße 40, 90402 Nürnberg",4.6,940,Restaurant,49.4483775,11.0719601,03,Tafelhof,false,,,,,,,https://www.google.com/maps/place/Babass+D%C3%B6ner+by+Kubii/data=!4m7!3m6!1s0x479f5700746bad55:0xdfb12dd62174053b!8m2!3d49.4483775!4d11.0719601!16s%2Fg%2F11vm9g8ml_!19sChIJVa1rdABXn0cROwV0IdYtsd8?authuser=0&hl=de&rclk=1,2026-05-03T12:32:08Z,active,success,
0x479f57a613292af7:0x756611f94404f58b,BackWerk,90402,"Pfannenschmiedsgasse 2, 90402 Nürnberg",3.9,300,Bäckerei,49.4504897,11.0776319,01,"Altstadt, St. Lorenz",false,,,,,,,https://www.google.com/maps/place/BackWerk/data=!4m7!3m6!1s0x479f57a613292af7:0x756611f94404f58b!8m2!3d49.4504897!4d11.0776319!16s%2Fg%2F1vgw7mvh!19sChIJ9yopE6ZXn0cRi_UERPkRZnU?authuser=0&hl=de&rclk=1,2026-05-03T12:37:52Z,active,success,
0x479f577915c5d4ab:0x202a3a2197d5a5c6,Balū • Breakfast & Brunch,90402,"Vordere Sterngasse 4-6, 90402 Nürnberg",4.8,156,Café / Konditorei,49.448357,11.078099,01,"Altstadt, St. Lorenz",true,11,20,15.5,9.04,4.457,11 bis 20 Bewertungen aufgrund von Beschwerden wegen Diffamierung entfernt.,https://www.google.com/maps/place/Bal%C5%AB+%E2%80%A2+Breakfast+%26+Brunch/data=!4m7!3m6!1s0x479f577915c5d4ab:0x202a3a2197d5a5c6!8m2!3d49.448357!4d11.078099!16s%2Fg%2F11wmvt83dy!19sChIJq9TFFXlXn0cRxqXVlyE6KiA?authuser=0&hl=de&rclk=1,2026-05-03T12:24:33Z,active,success,
0x479f57a05b77ef13:0x39c17fbab2f021b4,Bar Stazione,90402,"Bahnhofstraße 18, 90402 Nürnberg",4.6,22,Bar / Kneipe,49.4470937,11.0878163,11,Glockenhof,false,,,,,,,https://www.google.com/maps/place/Bar+Stazione/data=!4m7!3m6!1s0x479f57a05b77ef13:0x39c17fbab2f021b4!8m2!3d49.4470937!4d11.0878163!16s%2Fg%2F11c3vj465y!19sChIJE-93W6BXn0cRtCHwsrp_wTk?authuser=0&hl=de&rclk=1,2026-05-03T17:41:54Z,active,success,
0x479f57a6e99f3e55:0x55f98a0c0a0b0589,Bar59,90402,"Johannesgasse 59, 90402 Nürnberg",4.7,171,Bar / Kneipe,49.4492578,11.0804479,01,"Altstadt, St. Lorenz",false,,,,,,,https://www.google.com/maps/place/Bar59/data=!4m7!3m6!1s0x479f57a6e99f3e55:0x55f98a0c0a0b0589!8m2!3d49.4492578!4d11.0804479!16s%2Fg%2F1jmcrb0b_!19sChIJVT6f6aZXn0cRiQULCgyK-VU?authuser=0&hl=de&rclk=1,2026-05-03T17:42:17Z,active,success,
0x479f577dba3fe8fb:0xf35014ab621cb12b,Barber Style Nürnberg,90402,"Königstraße 73, 90402 Nürnberg",5,568,Friseur / Kosmetik,49.4485062,11.0805421,01,"Altstadt, St. Lorenz",true,6,10,8,1.39,4.944,Sechs bis zehn Bewertungen aufgrund von Beschwerden wegen Diffamierung entfernt.,https://www.google.com/maps/place/Barber+Style+N%C3%BCrnberg/data=!4m7!3m6!1s0x479f577dba3fe8fb:0xf35014ab621cb12b!8m2!3d49.4485062!4d11.0805421!16s%2Fg%2F11qpm1nc2q!19sChIJ--g_un1Xn0cRK7EcYqsUUPM?authuser=0&hl=de&rclk=1,2026-05-03T18:08:52Z,active,success,
0x479f57a8d6908fed:0x59379f88d2752926,Bat Dat - Asia Snacks,90402,"Färberstraße 2, 90402 Nürnberg",4.7,378,Asiatisch,49.4513862,11.0732724,01,"Altstadt, St. Lorenz",true,51,100,75.5,16.65,4.084,51 bis 100 Bewertungen aufgrund von Beschwerden wegen Diffamierung entfernt.,https://www.google.com/maps/place/Bat+Dat+-+Asia+Snacks/data=!4m7!3m6!1s0x479f57a8d6908fed:0x59379f88d2752926!8m2!3d49.4513862!4d11.0732724!16s%2Fg%2F11c5_vs1l0!19sChIJ7Y-Q1qhXn0cRJil10oifN1k?authuser=0&hl=de&rclk=1,2026-05-03T12:17:18Z,active,success,
0x479f576fd6b02511:0xf3a5f35aa5cbd560,Beets & Roots City | Restaurant & Catering,90402,"Königstraße 42-52, 90402 Nürnberg",4.4,16,Restaurant,49.4496956,11.0783116,01,"Altstadt, St. Lorenz",false,,,,,,,https://www.google.com/maps/place/Beets+%26+Roots+City+%7C+Restaurant+%26+Catering/data=!4m7!3m6!1s0x479f576fd6b02511:0xf3a5f35aa5cbd560!8m2!3d49.4496956!4d11.0783116!16s%2Fg%2F11mlbh7ky3!19sChIJESWw1m9Xn0cRYNXLpVrzpfM?authuser=0&hl=de&rclk=1,2026-05-03T17:25:35Z,active,success,
0x479f57f5a4eca533:0xce86cb7507f7d5ea,Bel Hana,90402,"Klaragasse 9, 90402 Nürnberg",4.9,1333,Restaurant,49.4485941,11.0777633,01,"Altstadt, St. Lorenz",false,,,,,,,https://www.google.com/maps/place/Bel+Hana/data=!4m7!3m6!1s0x479f57f5a4eca533:0xce86cb7507f7d5ea!8m2!3d49.4485941!4d11.0777633!16s%2Fg%2F11wr3l69n8!19sChIJM6XspPVXn0cR6tX3B3XLhs4?authuser=0&hl=de&rclk=1,2026-05-03T17:24:43Z,active,success,
0x479f579f7e80713f:0xf81e43b609c57d84,Bela Lugosi - Nürnberg,90402,"Marienstraße 25, 90402 Nürnberg",4.7,306,Bar / Kneipe,49.4480134,11.0888469,11,Glockenhof,false,,,,,,,https://www.google.com/maps/place/Bela+Lugosi+-+N%C3%BCrnberg/data=!4m7!3m6!1s0x479f579f7e80713f:0xf81e43b609c57d84!8m2!3d49.4480134!4d11.0888469!16s%2Fg%2F11b7q90t05!19sChIJP3GAfp9Xn0cRhH3FCbZDHvg?authuser=0&hl=de&rclk=1,2026-05-03T17:37:32Z,active,success,
0x479f57aa1ed2a55d:0x2fff88ded4239142,Bella Napoli,90402,"Ottostraße 29, 90402 Nürnberg",3.6,39,Club / Diskothek,49.44817,11.067913,04,Gostenhof,false,,,,,,,https://www.google.com/maps/place/Bella+Napoli/data=!4m7!3m6!1s0x479f57aa1ed2a55d:0x2fff88ded4239142!8m2!3d49.44817!4d11.067913!16s%2Fg%2F1tdwzjn1!19sChIJXaXSHqpXn0cRQpEj1N6I_y8?authuser=0&hl=de&rclk=1,2026-05-03T17:54:11Z,active,success,
0x479f57006ec5a707:0xe392ee081b5ec5e7,Berliner Döner,90402,"Ludwigstraße 63, 90402 Nürnberg",4.5,62,Döner / Kebab,49.4487755,11.0681803,04,Gostenhof,false,,,,,,,https://www.google.com/maps/place/Berliner+D%C3%B6ner/data=!4m7!3m6!1s0x479f57006ec5a707:0xe392ee081b5ec5e7!8m2!3d49.4487755!4d11.0681803!16s%2Fg%2F11mrdhwt9k!19sChIJB6fFbgBXn0cR58VeGwjukuM?authuser=0&hl=de&rclk=1,2026-05-03T17:20:04Z,active,success,
0x479f57aeb2de01af:0x9797380424ffc4e9,Bestform-Physiotherapie,90402,"Karl-Grillenberger-Straße 1, 90402 Nürnberg",5,69,Fitness / Sport,49.4521196,11.0709684,01,"Altstadt, St. Lorenz",true,2,5,3.5,4.83,4.807,Zwei bis fünf Bewertungen aufgrund von Beschwerden wegen Diffamierung entfernt.,https://www.google.com/maps/place/Bestform-Physiotherapie/data=!4m7!3m6!1s0x479f57aeb2de01af:0x9797380424ffc4e9!8m2!3d49.4521196!4d11.0709684!16s%2Fg%2F11xk4h0gg!19sChIJrwHesq5Xn0cR6cT_JAQ4l5c?authuser=0&hl=de&rclk=1,2026-05-03T18:58:14Z,active,success,
0x479f57a72472ad17:0x31281929f5dc2902,Biergarten im Burggraben,90402,,4.5,29,Bar / Kneipe,49.4577912,11.0732542,06,"Altstadt, St. Sebald",false,,,,,,,https://www.google.com/maps/place/Biergarten+im+Burggraben/data=!4m7!3m6!1s0x479f57a72472ad17:0x31281929f5dc2902!8m2!3d49.4577912!4d11.0732542!16s%2Fg%2F11nwc5jwrk!19sChIJF61yJKdXn0cRAinc9SkZKDE?authuser=0&hl=de&rclk=1,2026-05-03T17:48:54Z,temporarily_closed,success,
0x479f5700707e2fb5:0x6dbfc05c6cab41c8,Black Döner,90402,"Pfannenschmiedsgasse 10, 90402 Nürnberg",5,11,Imbiss,49.45027,11.07767,01,"Altstadt, St. Lorenz",false,,,,,,,https://www.google.com/maps/place/Black+D%C3%B6ner/data=!4m7!3m6!1s0x479f5700707e2fb5:0x6dbfc05c6cab41c8!8m2!3d49.45027!4d11.07767!16s%2Fg%2F11z4y6bt8k!19sChIJtS9-cABXn0cRyEGrbFzAv20?authuser=0&hl=de&rclk=1,2026-05-03T17:19:59Z,active,success,
0x479f57a728da65d5:0x9c14ebf4a3312b92,Blok,90402,"Königstraße 76, 90402 Nürnberg",4.5,190,Bar / Kneipe,49.447842,11.0805297,03,Tafelhof,true,21,50,35.5,15.74,3.949,21 bis 50 Bewertungen aufgrund von Beschwerden wegen Diffamierung entfernt.,https://www.google.com/maps/place/Blok/data=!4m7!3m6!1s0x479f57a728da65d5:0x9c14ebf4a3312b92!8m2!3d49.447842!4d11.0805297!16s%2Fg%2F1pp2x9f_8!19sChIJ1WXaKKdXn0cRkisxo_TrFJw?authuser=0&hl=de&rclk=1,2026-05-03T17:44:11Z,active,success,
0x479f57a7a6f2035f:0xdb67db1dd2c40546,Body Attack Premium Store Nürnberg,90402,"Vordere Sterngasse 16, 90402 Nürnberg",4.6,161,Sonstiges,49.44787,11.0780578,03,Tafelhof,false,,,,,,,https://www.google.com/maps/place/Body+Attack+Premium+Store+N%C3%BCrnberg/data=!4m7!3m6!1s0x479f57a7a6f2035f:0xdb67db1dd2c40546!8m2!3d49.44787!4d11.0780578!16s%2Fg%2F11b6nlnlxz!19sChIJXwPypqdXn0cRRgXE0h3bZ9s?authuser=0&hl=de&rclk=1,2026-05-03T18:51:07Z,active,success,
0x479f57a62fb79631:0xf426ce88ae2dd675,Bok City,90402,"Pfannenschmiedsgasse 8, 90402 Nürnberg",4.2,241,Restaurant,49.4502934,11.0776537,01,"Altstadt, St. Lorenz",false,,,,,,,https://www.google.com/maps/place/Bok+City/data=!4m7!3m6!1s0x479f57a62fb79631:0xf426ce88ae2dd675!8m2!3d49.4502934!4d11.0776537!16s%2Fg%2F1tx1s5p2!19sChIJMZa3L6ZXn0cRddYtrojOJvQ?authuser=0&hl=de&rclk=1,2026-05-03T12:32:22Z,active,success,
0x479f575597aabacf:0xb4365644009b0825,Bordell Haus 98,90402,"Frauentormauer 98, 90402 Nürnberg",3.6,24,Sonstiges,49.4479293,11.0680969,04,Gostenhof,false,,,,,,,https://www.google.com/maps/place/Bordell+Haus+98/data=!4m7!3m6!1s0x479f575597aabacf:0xb4365644009b0825!8m2!3d49.4479293!4d11.0680969!16s%2Fg%2F11cltrv711!19sChIJz7qql1VXn0cRJQibAERWNrQ?authuser=0&hl=de&rclk=1,2026-05-03T17:52:50Z,active,success,
0x479f57a8d69a53d5:0x84af9312f4193188,Bra Kebap,90402,"Färberstraße 2, 90402 Nürnberg",4.1,1013,Döner / Kebab,49.4512291,11.0732857,01,"Altstadt, St. Lorenz",false,,,,,,,https://www.google.com/maps/place/Bra+Kebap/data=!4m7!3m6!1s0x479f57a8d69a53d5:0x84af9312f4193188!8m2!3d49.4512291!4d11.0732857!16s%2Fg%2F11c6dxqt8l!19sChIJ1VOa1qhXn0cRiDEZ9BKTr4Q?authuser=0&hl=de&rclk=1,2026-05-03T12:31:10Z,active,success,
0x479f5767df968e4b:0x1d67c7171dd420c8,Bratwurstdose Nürnberg,90402,"Krebsgasse, 90402 Nürnberg",4.8,68,Imbiss,49.4502981,11.0753033,01,"Altstadt, St. Lorenz",false,,,,,,,https://www.google.com/maps/place/Bratwurstdose+N%C3%BCrnberg/data=!4m7!3m6!1s0x479f5767df968e4b:0x1d67c7171dd420c8!8m2!3d49.4502981!4d11.0753033!16s%2Fg%2F11f74mhq80!19sChIJS46W32dXn0cRyCDUHRfHZx0?authuser=0&hl=de&rclk=1,2026-05-03T12:14:01Z,active,success,
0x479f57a733c99657:0xe49162e3239708f7,Bratwurstglöcklein,90402,"Waffenhof 5, 90402 Nürnberg",4.2,2881,Restaurant,49.4475889,11.0812194,03,Tafelhof,false,,,,,,,https://www.google.com/maps/place/Bratwurstgl%C3%B6cklein/data=!4m7!3m6!1s0x479f57a733c99657:0xe49162e3239708f7!8m2!3d49.4475889!4d11.0812194!16s%2Fg%2F1ts1lmyp!19sChIJV5bJM6dXn0cR9wiXI-NikeQ?authuser=0&hl=de&rclk=1,2026-05-03T12:18:19Z,active,success,
0x479f578d5e5b872d:0xce1c10a092885e07,Bratwursthaus / Imbiss Weiß,90402,"Karolinenstraße 34, 90402 Nürnberg",4.6,30,Imbiss,49.451065,11.074772,01,"Altstadt, St. Lorenz",false,,,,,,,https://www.google.com/maps/place/Bratwursthaus+%2F+Imbiss+Wei%C3%9F/data=!4m7!3m6!1s0x479f578d5e5b872d:0xce1c10a092885e07!8m2!3d49.451065!4d11.074772!16s%2Fg%2F11rd7fhhq7!19sChIJLYdbXo1Xn0cRB16IkqAQHM4?authuser=0&hl=de&rclk=1,2026-05-03T12:33:59Z,permanently_closed,success,
0x479f57a60ca64e97:0xc3375bf18acad786,Bratwurststand,90402,"Karolinenstraße 1A, 90402 Nürnberg",3.3,61,Imbiss,49.4509433,11.0770323,01,"Altstadt, St. Lorenz",false,,,,,,,https://www.google.com/maps/place/Bratwurststand/data=!4m7!3m6!1s0x479f57a60ca64e97:0xc3375bf18acad786!8m2!3d49.4509433!4d11.0770323!16s%2Fg%2F11fx9kqhnq!19sChIJl06mDKZXn0cRhtfKivFbN8M?authuser=0&hl=de&rclk=1,2026-05-03T12:30:45Z,active,success,
0x479f5700038be56b:0xde03640a7d6cd3fd,Breite Gasse 3,90402,"Breite G. 3, 90402 Nürnberg",5,1,Imbiss,49.4497504,11.0771473,01,"Altstadt, St. Lorenz",false,,,,,,,"https://www.google.com/maps/place/Breite+Gasse+3/@49.4497504,11.0771473,16z/data=!3m1!4b1!4m6!3m5!1s0x479f5700038be56b:0xde03640a7d6cd3fd!8m2!3d49.4497504!4d11.0771473!16s%2Fg%2F11msfm5cm4?entry=ttu&g_ep=EgoyMDI2MDUwMi4wIKXMDSoASAFQAw%3D%3D&hl=de",2026-05-07T08:47:13Z,active,success,
0x479f57767c734b7d:0x69aea1ea3cf3b8ab,Breuninger Confiserie Nürnberg,90402,"Karolinenstraße 34, 90402 Nürnberg",3.4,155,Café / Konditorei,49.4511881,11.0752185,01,"Altstadt, St. Lorenz",false,,,,,,,https://www.google.com/maps/place/Breuninger+Confiserie+N%C3%BCrnberg/data=!4m7!3m6!1s0x479f57767c734b7d:0x69aea1ea3cf3b8ab!8m2!3d49.4511881!4d11.0752185!16s%2Fg%2F11jclnq56g!19sChIJfUtzfHZXn0cRq7jzPOqhrmk?authuser=0&hl=de&rclk=1,2026-05-03T12:27:18Z,active,success,
0x479f57a65f42643f:0xaabb86371c72268c,Brezen Kolb Brezenstand,90402,"Königstraße 42-52, 90402 Nürnberg",4.3,30,Bäckerei,49.4500803,11.0785762,01,"Altstadt, St. Lorenz",false,,,,,,,https://www.google.com/maps/place/Brezen+Kolb+Brezenstand/data=!4m7!3m6!1s0x479f57a65f42643f:0xaabb86371c72268c!8m2!3d49.4500803!4d11.0785762!16s%2Fg%2F11bzr_7__7!19sChIJP2RCX6ZXn0cRjCZyHDeGu6o?authuser=0&hl=de&rclk=1,2026-05-03T12:40:05Z,active,success,
0x479f5734903e44eb:0xf874421f3a7d9cbe,Brezen Kolb Königstorpassage (U-Bahn Verteilergeschoss),90402,"Bahnhofspl., 90402 Nürnberg",3.3,14,Bäckerei,49.447206,11.0823993,03,Tafelhof,false,,,,,,,https://www.google.com/maps/place/Brezen+Kolb+K%C3%B6nigstorpassage+%28U-Bahn+Verteilergeschoss%29/data=!4m7!3m6!1s0x479f5734903e44eb:0xf874421f3a7d9cbe!8m2!3d49.447206!4d11.0823993!16s%2Fg%2F11n8x3bd06!19sChIJ60Q-kDRXn0cRvpx9Oh9CdPg?authuser=0&hl=de&rclk=1,2026-05-03T12:44:44Z,active,success,
0x479f57f5a3a7f91f:0xcdbe03076ab5bcc6,Brinc,90402,"Bahnhofstraße 27, 90402 Nürnberg",4.6,117,Sonstiges,49.4476161,11.0880456,11,Glockenhof,false,,,,,,,https://www.google.com/maps/place/Brinc/data=!4m7!3m6!1s0x479f57f5a3a7f91f:0xcdbe03076ab5bcc6!8m2!3d49.4476161!4d11.0880456!16s%2Fg%2F11bzyn7kd9!19sChIJH_mno_VXn0cRxry1agcDvs0?authuser=0&hl=de&rclk=1,2026-05-03T19:09:16Z,active,success,
0x479f57a65a16af47:0xd1b740b064fd0d3f,Brooklyn Nürnberg,90402,"Hallpl. 2, 90402 Nürnberg",4.5,1045,Sonstiges,49.4492696,11.0780127,01,"Altstadt, St. Lorenz",false,,,,,,,https://www.google.com/maps/place/Brooklyn+N%C3%BCrnberg/data=!4m7!3m6!1s0x479f57a65a16af47:0xd1b740b064fd0d3f!8m2!3d49.4492696!4d11.0780127!16s%2Fg%2F1tnsqy2h!19sChIJR68WWqZXn0cRPw39ZLBAt9E?authuser=0&hl=de&rclk=1,2026-05-03T19:01:31Z,active,success,
0x479f57a635506a41:0x6f0ea30d9a8de64f,BrotZeit - Essen wie bei Muddi,90402,"Klaragasse 30, 90402 Nürnberg",4.6,265,Restaurant,49.44883,11.077039,01,"Altstadt, St. Lorenz",false,,,,,,,https://www.google.com/maps/place/BrotZeit+-+Essen+wie+bei+Muddi/data=!4m7!3m6!1s0x479f57a635506a41:0x6f0ea30d9a8de64f!8m2!3d49.44883!4d11.077039!16s%2Fg%2F1tj5k438!19sChIJQWpQNaZXn0cRT-aNmg2jDm8?authuser=0&hl=de&rclk=1,2026-05-03T12:22:27Z,active,success,
0x479f575c87dce62f:0x85c3fb7caea5312b,"Bruderherz Nürnberg - Brauwerkstatt, Gutmann Gastwirtschaft, Stehausschank",90402,"Luitpoldstraße 15, 90402 Nürnberg",4.7,340,Restaurant,49.4479685,11.0787306,03,Tafelhof,true,11,20,15.5,4.36,4.539,11 bis 20 Bewertungen aufgrund von Beschwerden wegen Diffamierung entfernt.,"https://www.google.com/maps/place/Bruderherz+N%C3%BCrnberg+-+Brauwerkstatt,+Gutmann+Gastwirtschaft,+Stehausschank/data=!4m7!3m6!1s0x479f575c87dce62f:0x85c3fb7caea5312b!8m2!3d49.4479685!4d11.0787306!16s%2Fg%2F11xcd302l0!19sChIJL-bch1xXn0cRKzGlrnz7w4U?authuser=0&hl=de&rclk=1",2026-05-03T12:12:08Z,active,success,
0x479f57c4ac893693:0x3ad9d25466c154b8,Brunnen Apartments,90402,"Brunnengasse 47, 90402 Nürnberg",4.8,30,Hotel,49.4503554,11.0747208,01,"Altstadt, St. Lorenz",false,,,,,,,https://www.google.com/maps/place/Brunnen+Apartments/data=!4m10!3m9!1s0x479f57c4ac893693:0x3ad9d25466c154b8!5m2!4m1!1i2!8m2!3d49.4503554!4d11.0747208!16s%2Fg%2F11ryf7ch94!19sChIJkzaJrMRXn0cRuFTBZlTS2To?authuser=0&hl=de&rclk=1,2026-05-03T18:06:15Z,active,success,
0x479f57395078befd:0x9c3369f889d2809c,Burgerheart Nürnberg,90402,"Königstraße 72, 90402 Nürnberg",4.5,6415,Burger,49.4481538,11.0803343,03,Tafelhof,false,,,,,,,https://www.google.com/maps/place/Burgerheart+N%C3%BCrnberg/data=!4m7!3m6!1s0x479f57395078befd:0x9c3369f889d2809c!8m2!3d49.4481538!4d11.0803343!16s%2Fg%2F11gzs1l5wv!19sChIJ_b54UDlXn0cRnIDSifhpM5w?authuser=0&hl=de&rclk=1,2026-05-03T12:16:50Z,active,success,
0x479f57aa19853a59:0xd00af20788a28634,BÖHMISCHE HAUBE,90402,"Ottostraße 33, 90402 Nürnberg",2.8,60,Sonstiges,49.4481245,11.0676497,04,Gostenhof,false,,,,,,,https://www.google.com/maps/place/B%C3%96HMISCHE+HAUBE/data=!4m7!3m6!1s0x479f57aa19853a59:0xd00af20788a28634!8m2!3d49.4481245!4d11.0676497!16s%2Fg%2F1tdj_lcr!19sChIJWTqFGapXn0cRNIaiiAfyCtA?authuser=0&hl=de&rclk=1,2026-05-03T17:45:38Z,active,success,
0x479f57a888f4eceb:0x38379b5a2e6ca259,Bärte & Klingen Barbershop,90402,"Kornmarkt, 90402 Nürnberg",4.4,7,Friseur / Kosmetik,49.4492411,11.074569,01,"Altstadt, St. Lorenz",false,,,,,,,https://www.google.com/maps/place/B%C3%A4rte+%26+Klingen+Barbershop/data=!4m7!3m6!1s0x479f57a888f4eceb:0x38379b5a2e6ca259!8m2!3d49.4492411!4d11.074569!16s%2Fg%2F11wg8248vp!19sChIJ6-z0iKhXn0cRWaJsLlqbNzg?authuser=0&hl=de&rclk=1,2026-05-03T18:20:47Z,active,success,
0x479f57a6e9d02a45:0x8e40e2db405aa4b0,C'era Una Volta,90402,"Johannesgasse 51, 90402 Nürnberg",4.4,730,Restaurant,49.449331,11.080686,01,"Altstadt, St. Lorenz",false,,,,,,,https://www.google.com/maps/place/C%27era+Una+Volta/data=!4m7!3m6!1s0x479f57a6e9d02a45:0x8e40e2db405aa4b0!8m2!3d49.449331!4d11.080686!16s%2Fg%2F1tgqhdvq!19sChIJRSrQ6aZXn0cRsKRaQNviQI4?authuser=0&hl=de&rclk=1,2026-05-03T12:16:45Z,active,success,
0x479f5721d251bc97:0x6e231596ef93e0e4,"CHILLERS – Burger, Wings, Drinks & More",90402,"Brunnengasse 11, 90402 Nürnberg",4,901,Restaurant,49.45035,11.07676,01,"Altstadt, St. Lorenz",false,,,,,,,"https://www.google.com/maps/place/CHILLERS+%E2%80%93+Burger,+Wings,+Drinks+%26+More/data=!4m7!3m6!1s0x479f5721d251bc97:0x6e231596ef93e0e4!8m2!3d49.45035!4d11.07676!16s%2Fg%2F11g2_h9jm3!19sChIJl7xR0iFXn0cR5OCT75YVI24?authuser=0&hl=de&rclk=1",2026-05-03T17:21:17Z,active,success,
0x479f570005094549:0x7d435a69717f0504,CINNAMOOD,90402,"Breite G. 32, 90402 Nürnberg",3.7,473,Café / Konditorei,49.4501389,11.0755981,01,"Altstadt, St. Lorenz",false,,,,,,,https://www.google.com/maps/place/Cinnamood+N%C3%BCrnberg/data=!4m7!3m6!1s0x479f570005094549:0x7d435a69717f0504!8m2!3d49.4501389!4d11.0755981!16s%2Fg%2F11vlyy16th!19sChIJSUUJBQBXn0cRBAV_cWlaQ30?authuser=0&hl=de&rclk=1,2026-05-03T12:38:16Z,active,success,
0x479f57a5d94150cd:0x4ca462ba96299614,Cafe Extrablatt,90402,"Lorenzer Pl. 3A, 90402 Nürnberg",4.3,1398,Restaurant,49.4514928,11.0786291,01,"Altstadt, St. Lorenz",false,,,,,,,https://www.google.com/maps/place/Cafe+Extrablatt/data=!4m7!3m6!1s0x479f57a5d94150cd:0x4ca462ba96299614!8m2!3d49.4514928!4d11.0786291!16s%2Fg%2F11j4stn3xq!19sChIJzVBB2aVXn0cRFJYplrpipEw?authuser=0&hl=de&rclk=1,2026-05-03T12:23:09Z,active,success,
0x479f57a878080ad5:0x221002cf76f39503,Café Arte,90402,"Kartäusergasse 1, 90402 Nürnberg",4.4,137,Café / Konditorei,49.4484179,11.0752469,03,Tafelhof,false,,,,,,,https://www.google.com/maps/place/Caf%C3%A9+Arte/data=!4m7!3m6!1s0x479f57a878080ad5:0x221002cf76f39503!8m2!3d49.4484179!4d11.0752469!16s%2Fg%2F1tdvj528!19sChIJ1QoIeKhXn0cRA5Xzds8CECI?authuser=0&hl=de&rclk=1,2026-05-03T12:22:11Z,active,success,
0x479f57a6938a1783:0xcfb53d9d90f90210,Café Bar Cartoon / Nürnberg,90402,"An d. Sparkasse 6, 90402 Nürnberg",4.6,433,Bar / Kneipe,49.4499078,11.0804837,01,"Altstadt, St. Lorenz",false,,,,,,,https://www.google.com/maps/place/Caf%C3%A9+Bar+Cartoon+%2F+N%C3%BCrnberg/data=!4m7!3m6!1s0x479f57a6938a1783:0xcfb53d9d90f90210!8m2!3d49.4499078!4d11.0804837!16s%2Fg%2F1thp_q89!19sChIJgxeKk6ZXn0cREAL5kJ09tc8?authuser=0&hl=de&rclk=1,2026-05-03T12:29:53Z,temporarily_closed,success,
0x479f57a654c046b3:0x303e8d96aa0f8ab,Café Fenster zur Stadt,90402,"Vordere Sterngasse 1, 90402 Nürnberg",4.7,25,Café / Konditorei,49.4487378,11.0783492,01,"Altstadt, St. Lorenz",false,,,,,,,"https://www.google.com/maps/place/Caf%C3%A9+Fenster+zur+Stadt/@49.4487378,11.0783492,17z/data=!3m1!4b1!4m6!3m5!1s0x479f57a654c046b3:0x303e8d96aa0f8ab!8m2!3d49.4487378!4d11.0783492!16s%2Fg%2F11b6d2qs3t?entry=ttu&g_ep=EgoyMDI2MDUwMi4wIKXMDSoASAFQAw%3D%3D&hl=de",2026-05-07T08:46:58Z,active,success,
0x479f5700784c8f77:0xe67e047c233205a2,Café Mauerblümchen,90402,"Frauentormauer 11, 90402 Nürnberg",5,14,Café / Konditorei,49.4470146,11.0782541,03,Tafelhof,false,,,,,,,"https://www.google.com/maps/place/Caf%C3%A9+Mauerbl%C3%BCmchen/@49.4470146,11.0782541,17z/data=!3m1!4b1!4m6!3m5!1s0x479f5700784c8f77:0xe67e047c233205a2!8m2!3d49.4470146!4d11.0782541!16s%2Fg%2F11xyk14h83?entry=ttu&g_ep=EgoyMDI2MDUwMi4wIKXMDSoASAFQAw%3D%3D&hl=de",2026-05-07T08:46:38Z,active,success,
0x479f570019ad221b:0x1dd64a3e61b2d9f0,Café Mua,90402,"Breite G. 2, 90402 Nürnberg",4.1,36,Café / Konditorei,49.4500384,11.0776972,01,"Altstadt, St. Lorenz",false,,,,,,,"https://www.google.com/maps/place/Caf%C3%A9+Mua/@49.4500384,11.0776972,17z/data=!3m1!4b1!4m6!3m5!1s0x479f570019ad221b:0x1dd64a3e61b2d9f0!8m2!3d49.4500384!4d11.0776972!16s%2Fg%2F11mlyd6p2q?entry=ttu&g_ep=EgoyMDI2MDUwMi4wIKXMDSoASAFQAw%3D%3D&hl=de",2026-05-07T08:37:42Z,active,success,
0x479f57a9875e767f:0x39c437cca0b39946,Café Pintus,90402,"Ludwigstraße 39, 90402 Nürnberg",4.4,392,Bar / Kneipe,49.4491676,11.0690113,04,Gostenhof,false,,,,,,,https://www.google.com/maps/place/Caf%C3%A9+Pintus/data=!4m7!3m6!1s0x479f57a9875e767f:0x39c437cca0b39946!8m2!3d49.4491676!4d11.0690113!16s%2Fg%2F1vl5fsb1!19sChIJf3Zeh6lXn0cRRpmzoMw3xDk?authuser=0&hl=de&rclk=1,2026-05-03T12:25:39Z,active,success,
0x479f573c3c295a59:0xeb91b39d07d3b792,Café in der 12 - Nürnberg,90402,"Königstraße 82, 90402 Nürnberg",4.7,500,Café / Konditorei,49.4474142,11.0809088,03,Tafelhof,true,6,10,8,1.57,4.642,Sechs bis zehn Bewertungen aufgrund von Beschwerden wegen Diffamierung entfernt.,https://www.google.com/maps/place/Caf%C3%A9+in+der+12+-+N%C3%BCrnberg/data=!4m7!3m6!1s0x479f573c3c295a59:0xeb91b39d07d3b792!8m2!3d49.4474142!4d11.0809088!16s%2Fg%2F11g4gqmzll!19sChIJWVopPDxXn0cRkrfTB52zkes?authuser=0&hl=de&rclk=1,2026-05-03T12:21:15Z,active,success,
0x479f5720fb9887fb:0x175e37dfcdb32ba2,Call of Kimchi The One,90402,"Vor der Lorenzkirche, Königstraße, 90402 Nürnberg",4.6,7,Imbiss,49.4509595,11.0778736,01,"Altstadt, St. Lorenz",false,,,,,,,https://www.google.com/maps/place/Call+of+Kimchi+The+One/data=!4m7!3m6!1s0x479f5720fb9887fb:0x175e37dfcdb32ba2!8m2!3d49.4509595!4d11.0778736!16s%2Fg%2F11y9pwch_q!19sChIJ-4eY-yBXn0cRoiuzzd83Xhc?authuser=0&hl=de&rclk=1,2026-05-03T12:30:56Z,active,success,
0x479f57a0bd6beef1:0x7314d4def80c7872,Cantina Estación Mediterrano,90402,"Nürnberg Hauptbahnhof, Bahnhofspl. 9, 90402 Nürnberg",4,71,Restaurant,49.4465347,11.0828516,13,Galgenhof,false,,,,,,,https://www.google.com/maps/place/Cantina+Estaci%C3%B3n+Mediterrano/data=!4m7!3m6!1s0x479f57a0bd6beef1:0x7314d4def80c7872!8m2!3d49.4465347!4d11.0828516!16s%2Fg%2F11c430twm5!19sChIJ8e5rvaBXn0cRcngM-N7UFHM?authuser=0&hl=de&rclk=1,2026-05-03T12:36:25Z,active,success,
0x479f57a6e17f88c1:0x1c33f324ff70f0ba,Caritas-Pirckheimer-Haus gGmbH,90402,"Königstraße 64, 90402 Nürnberg",4.4,429,Hotel,49.4486156,11.0790545,01,"Altstadt, St. Lorenz",false,,,,,,,https://www.google.com/maps/place/Caritas-Pirckheimer-Haus+gGmbH/data=!4m10!3m9!1s0x479f57a6e17f88c1:0x1c33f324ff70f0ba!5m2!4m1!1i2!8m2!3d49.4486156!4d11.0790545!16s%2Fg%2F1tf8621k!19sChIJwYh_4aZXn0cRuvBw_yTzMxw?authuser=0&hl=de&rclk=1,2026-05-03T18:03:29Z,active,success,
0x479f57027f46bba7:0x5d12f6f497d2fc3e,Casa Pane,90402,"Königstraße 23, 90402 Nürnberg",3.9,1301,Bäckerei,49.4504918,11.0786007,01,"Altstadt, St. Lorenz",false,,,,,,,https://www.google.com/maps/place/Casa+Pane/data=!4m7!3m6!1s0x479f57027f46bba7:0x5d12f6f497d2fc3e!8m2!3d49.4504918!4d11.0786007!16s%2Fg%2F11b6d5v4jg!19sChIJp7tGfwJXn0cRPvzSl_T2El0?authuser=0&hl=de&rclk=1,2026-05-03T12:26:38Z,active,success,
0x479f57a7238203c3:0x430c49010ef50cbc,Cennet Sahin Schnellrestaurant Centrum,90402,"Königstraße 74, 90402 Nürnberg",5,1,Imbiss,49.4479954,11.0805257,03,Tafelhof,false,,,,,,,"https://www.google.com/maps/place/Cennet+Sahin+Schnellrestaurant+Centrum/@49.4479954,11.0805257,16z/data=!3m1!4b1!4m6!3m5!1s0x479f57a7238203c3:0x430c49010ef50cbc!8m2!3d49.4479954!4d11.0805257!16s%2Fg%2F11g9dt325z?entry=ttu&g_ep=EgoyMDI2MDUwMi4wIKXMDSoASAFQAw%3D%3D&hl=de",2026-05-07T08:47:05Z,active,success,
0x479f5734cec126e7:0xb80666b923f61a6e,Cheevit Cheeva Thaimassage Nürnberg,90402,"Jakobstraße 11, 90402 Nürnberg",4.7,135,Friseur / Kosmetik,49.448839,11.073492,03,Tafelhof,false,,,,,,,https://www.google.com/maps/place/Cheevit+Cheeva+Thaimassage+N%C3%BCrnberg/data=!4m7!3m6!1s0x479f5734cec126e7:0xb80666b923f61a6e!8m2!3d49.448839!4d11.073492!16s%2Fg%2F11fsklxll8!19sChIJ5ybBzjRXn0cRbhr2I7lmBrg?authuser=0&hl=de&rclk=1,2026-05-03T19:00:55Z,active,success,
0x479f57f3861d9947:0x5001ba57398cf7cf,Chiba 小食光,90402,"Lorenzer Str. 25, 90402 Nürnberg",4.6,702,Restaurant,49.4501658,11.0821255,01,"Altstadt, St. Lorenz",true,6,10,8,1.13,4.559,Sechs bis zehn Bewertungen aufgrund von Beschwerden wegen Diffamierung entfernt.,https://www.google.com/maps/place/Chiba+%E5%B0%8F%E9%A3%9F%E5%85%89/data=!4m7!3m6!1s0x479f57f3861d9947:0x5001ba57398cf7cf!8m2!3d49.4501658!4d11.0821255!16s%2Fg%2F11jhx1zbcz!19sChIJR5kdhvNXn0cRz_eMOVe6AVA?authuser=0&hl=de&rclk=1,2026-05-03T12:16:11Z,active,success,
0x479f57aa232847d1:0x8125bba17063887b,Chili's Asia Nudeln,90402,"Ludwigstraße 77, 90402 Nürnberg",3.6,130,Asiatisch,49.4485357,11.0675947,04,Gostenhof,false,,,,,,,https://www.google.com/maps/place/Chili%27s+Asia+Nudeln/data=!4m7!3m6!1s0x479f57aa232847d1:0x8125bba17063887b!8m2!3d49.4485357!4d11.0675947!16s%2Fg%2F11gf95y8rk!19sChIJ0UcoI6pXn0cRe4hjcKG7JYE?authuser=0&hl=de&rclk=1,2026-05-03T12:32:44Z,active,success,
0x479f57ca102e734f:0xa652d0952f8bc724,City Apart,90402,"Färberstraße 19, 90402 Nürnberg",4,1,Hotel,49.4487765,11.0724208,03,Tafelhof,false,,,,,,,https://www.google.com/maps/place/City+Apart/data=!4m10!3m9!1s0x479f57ca102e734f:0xa652d0952f8bc724!5m2!4m1!1i2!8m2!3d49.4487765!4d11.0724208!16s%2Fg%2F11h5n4sb2l!19sChIJT3MuEMpXn0cRJMeLL5XQUqY?authuser=0&hl=de&rclk=1,2026-05-04T00:09:29Z,active,success,
0x479f57adedb3c49b:0x4c73d850583c5cba,City Apart Nürnberg Altstadt,90402,"Brunnengasse 50, 90402 Nürnberg",4.2,16,Hotel,49.4506222,11.0735101,01,"Altstadt, St. Lorenz",false,,,,,,,https://www.google.com/maps/place/City+Apart+N%C3%BCrnberg+Altstadt/data=!4m10!3m9!1s0x479f57adedb3c49b:0x4c73d850583c5cba!5m2!4m1!1i2!8m2!3d49.4506222!4d11.0735101!16s%2Fg%2F12htxs8z5!19sChIJm8Sz7a1Xn0cRulw8WFDYc0w?authuser=0&hl=de&rclk=1,2026-05-03T18:02:21Z,active,success,
0x479f57a665a1e447:0x3d3019a82166a85a,City Apotheke,90402,"Königstraße 31, 90402 Nürnberg",3.9,73,Apotheke,49.450253,11.078813,01,"Altstadt, St. Lorenz",false,,,,,,,https://www.google.com/maps/place/City+Apotheke/data=!4m7!3m6!1s0x479f57a665a1e447:0x3d3019a82166a85a!8m2!3d49.450253!4d11.078813!16s%2Fg%2F1tfzwh6m!19sChIJR-ShZaZXn0cRWqhmIagZMD0?authuser=0&hl=de&rclk=1,2026-05-03T19:19:54Z,active,success,
0x479f57a6558cf4df:0x580ab83017be0e38,Club Stereo,90402,"Klaragasse 8, 90402 Nürnberg",4.2,732,Club / Diskothek,49.4488925,11.0786154,01,"Altstadt, St. Lorenz",false,,,,,,,https://www.google.com/maps/place/Club+Stereo/data=!4m7!3m6!1s0x479f57a6558cf4df:0x580ab83017be0e38!8m2!3d49.4488925!4d11.0786154!16s%2Fg%2F1tgnw6k6!19sChIJ3_SMVaZXn0cROA6-FzC4Clg?authuser=0&hl=de&rclk=1,2026-05-03T17:45:19Z,active,success,
0x479f57a91ef1ab7d:0xac36b55882ba4b47,Cocktail To Go,90402,"Färberstraße 8, 90402 Nürnberg",5,1,Bar / Kneipe,49.4498851,11.0726973,01,"Altstadt, St. Lorenz",false,,,,,,,https://www.google.com/maps/place/Cocktail+To+Go/data=!4m7!3m6!1s0x479f57a91ef1ab7d:0xac36b55882ba4b47!8m2!3d49.4498851!4d11.0726973!16s%2Fg%2F11h9bngptx!19sChIJfavxHqlXn0cRR0u6gli1Nqw?authuser=0&hl=de&rclk=1,2026-05-03T17:51:09Z,active,success,
0x479f5755e5959963:0x5685e39b9bfde17c,Coffee Bayt,90402,"Parkplatz, Karl-Grillenberger-Straße 40, 90402 Nürnberg",4.8,664,Café / Konditorei,49.4510948,11.0693817,01,"Altstadt, St. Lorenz",false,,,,,,,https://www.google.com/maps/place/Coffee+Bayt/data=!4m7!3m6!1s0x479f5755e5959963:0x5685e39b9bfde17c!8m2!3d49.4510948!4d11.0693817!16s%2Fg%2F11rtmz0qfr!19sChIJY5mV5VVXn0cRfOH9m5vjhVY?authuser=0&hl=de&rclk=1,2026-05-03T12:16:00Z,active,success,
0x479f576bb6a08ab3:0x9b09cea4980851ca,Coiffeur lina,90402,"Hallpl. 11, 90402 Nürnberg",4.9,30,Friseur / Kosmetik,49.4490494,11.0785805,01,"Altstadt, St. Lorenz",false,,,,,,,https://www.google.com/maps/place/Coiffeur+lina/data=!4m7!3m6!1s0x479f576bb6a08ab3:0x9b09cea4980851ca!8m2!3d49.4490494!4d11.0785805!16s%2Fg%2F11jt6jdwrn!19sChIJs4qgtmtXn0cRylEImKTOCZs?authuser=0&hl=de&rclk=1,2026-05-03T18:17:25Z,active,success,
0x479f577a1e402e93:0x62b4547c03078d4a,ComPho 1966,90402,"Färberstraße 42, 90402 Nürnberg",4.6,247,Restaurant,49.4483374,11.071907,03,Tafelhof,false,,,,,,,https://www.google.com/maps/place/ComPho+1966/data=!4m7!3m6!1s0x479f577a1e402e93:0x62b4547c03078d4a!8m2!3d49.4483374!4d11.071907!16s%2Fg%2F11j0rwq17b!19sChIJky5AHnpXn0cRSo0HA3xUtGI?authuser=0&hl=de&rclk=1,2026-05-03T12:15:55Z,active,success,
0x479f570030d1849d:0x1650b4b4c3736daa,Cookie Couture Nürnberg,90402,"Karolinenstraße 42-44, 90402 Nürnberg",4.2,271,Bäckerei,49.4511772,11.0734077,01,"Altstadt, St. Lorenz",true,21,50,35.5,11.58,3.829,21 bis 50 Bewertungen aufgrund von Beschwerden wegen Diffamierung entfernt.,https://www.google.com/maps/place/Cookie+Couture+N%C3%BCrnberg/data=!4m7!3m6!1s0x479f570030d1849d:0x1650b4b4c3736daa!8m2!3d49.4511772!4d11.0734077!16s%2Fg%2F11x_g3x_h2!19sChIJnYTRMABXn0cRqm1zw7S0UBY?authuser=0&hl=de&rclk=1,2026-05-03T12:37:13Z,active,success,
0x479f57b58cca8005:0x67409e343d4a328a,Crusty Slices Nürnberg,90402,"Breite G. 3, 90402 Nürnberg",4,74,Imbiss,49.4497504,11.0771473,01,"Altstadt, St. Lorenz",false,,,,,,,https://www.google.com/maps/place/Crusty+Slices+N%C3%BCrnberg/data=!4m7!3m6!1s0x479f57b58cca8005:0x67409e343d4a328a!8m2!3d49.4497504!4d11.0771473!16s%2Fg%2F11ys9xkgcn!19sChIJBYDKjLVXn0cRijJKPTSeQGc?authuser=0&hl=de&rclk=1,2026-05-03T12:19:03Z,active,success,
0x479f57abe1afa5a7:0xf87bcbdf62527dbf,CôCô taste of Asia Sushi Nürnberg,90402,"Schlotfegergasse 2, 90402 Nürnberg",4.8,1063,Sushi,49.4510596,11.0692968,01,"Altstadt, St. Lorenz",true,51,100,75.5,6.63,4.548,51 bis 100 Bewertungen aufgrund von Beschwerden wegen Diffamierung entfernt.,https://www.google.com/maps/place/C%C3%B4C%C3%B4+taste+of+Asia+Sushi+N%C3%BCrnberg/data=!4m7!3m6!1s0x479f57abe1afa5a7:0xf87bcbdf62527dbf!8m2!3d49.4510596!4d11.0692968!16s%2Fg%2F11b87w913h!19sChIJp6Wv4atXn0cRv31SYt_Le_g?authuser=0&hl=de&rclk=1,2026-05-03T12:12:50Z,active,success,
0x479f57a836c767df:0x73fd8134e17efa95,CôDung Sushi & Beef,90402,"Färberstraße 43, 90402 Nürnberg",4.6,3739,Sushi,49.447769,11.0721217,03,Tafelhof,false,,,,,,,https://www.google.com/maps/place/C%C3%B4Dung+Sushi+%26+Beef/data=!4m7!3m6!1s0x479f57a836c767df:0x73fd8134e17efa95!8m2!3d49.447769!4d11.0721217!16s%2Fg%2F1tmz5ydn!19sChIJ32fHNqhXn0cRlfp-4TSB_XM?authuser=0&hl=de&rclk=1,2026-05-03T12:16:57Z,active,success,
0x479f57630a202677:0xa0d38a27b1662a80,DORNAUERS Lebküchnerei & Chocolaterie / Handwerkerhof / Cafe´ im Wehrgang,90402,"Königs-. u. Frauentorzwinger, 5b, 90402 Nürnberg",4.7,95,Café / Konditorei,49.4474622,11.081298,03,Tafelhof,false,,,,,,,https://www.google.com/maps/place/DORNAUERS+Lebk%C3%BCchnerei+%26+Chocolaterie+%2F+Handwerkerhof+%2F+Cafe%C2%B4+im+Wehrgang/data=!4m7!3m6!1s0x479f57630a202677:0xa0d38a27b1662a80!8m2!3d49.4474622!4d11.081298!16s%2Fg%2F11h57tlnh2!19sChIJdyYgCmNXn0cRgCpmsSeK06A?authuser=0&hl=de&rclk=1,2026-05-03T12:41:42Z,active,success,
0x479f576fc950715b:0x7991d9d8bd88dc4a,DORNAUERS Lebküchnerei & Chocolaterie / Mauthalle,90402,"Hallpl. 2, 90402 Nürnberg",4.8,21,Café / Konditorei,49.4493504,11.0790965,01,"Altstadt, St. Lorenz",false,,,,,,,https://www.google.com/maps/place/DORNAUERS+Lebk%C3%BCchnerei+%26+Chocolaterie+%2F+Mauthalle/data=!4m7!3m6!1s0x479f576fc950715b:0x7991d9d8bd88dc4a!8m2!3d49.4493504!4d11.0790965!16s%2Fg%2F11wr2w0g_c!19sChIJW3FQyW9Xn0cRStyIvdjZkXk?authuser=0&hl=de&rclk=1,2026-05-03T12:41:58Z,active,success,
0x479f5700433983c3:0x3da01c4ada219387,Das Grün Collective,90402,"Bahnhofspl. 9, 90402 Nürnberg",,,Club / Diskothek,49.446299,11.081877,13,Galgenhof,false,,,,,,,https://www.google.com/maps/place/Das+Gr%C3%BCn+Collective/data=!4m7!3m6!1s0x479f5700433983c3:0x3da01c4ada219387!8m2!3d49.446299!4d11.081877!16s%2Fg%2F11z3wn9q7g!19sChIJw4M5QwBXn0cRh5Mh2kocoD0?authuser=0&hl=de&rclk=1,2026-05-03T17:58:31Z,active,success,
0x479f57a8dbce5bf7:0x49a1cc5f78d12029,Das Moor - Fränkische Spezialitäten,90402,"Färberstraße 3, 90402 Nürnberg",4.4,952,Restaurant,49.4507095,11.0732511,01,"Altstadt, St. Lorenz",true,11,20,15.5,1.6,4.346,11 bis 20 Bewertungen aufgrund von Beschwerden wegen Diffamierung entfernt.,https://www.google.com/maps/place/Das+Moor+-+Fr%C3%A4nkische+Spezialit%C3%A4ten/data=!4m7!3m6!1s0x479f57a8dbce5bf7:0x49a1cc5f78d12029!8m2!3d49.4507095!4d11.0732511!16s%2Fg%2F1tg85nf2!19sChIJ91vO26hXn0cRKSDReF_MoUk?authuser=0&hl=de&rclk=1,2026-05-03T12:17:56Z,active,success,
0x479f57a9a65ab759:0x123dd70a4e8f0ed0,"Das Steichele, Hotel | Restaurant | Weinstube",90402,"Knorrstraße 8, 90402 Nürnberg",4.2,461,Hotel,49.449225,11.071107,01,"Altstadt, St. Lorenz",false,,,,,,,"https://www.google.com/maps/place/Das+Steichele,+Hotel+%7C+Restaurant+%7C+Weinstube/data=!4m10!3m9!1s0x479f57a9a65ab759:0x123dd70a4e8f0ed0!5m2!4m1!1i2!8m2!3d49.449225!4d11.071107!16s%2Fg%2F126122ghp!19sChIJWbdapqlXn0cR0A6PTgrXPRI?authuser=0&hl=de&rclk=1",2026-05-03T12:19:27Z,active,success,
0x479f575fa87eee19:0x88fb314bc9184562,Date House Café,90402,"Breite G. 88, 90402 Nürnberg",4.5,120,Café / Konditorei,49.4504447,11.0719098,01,"Altstadt, St. Lorenz",false,,,,,,,https://www.google.com/maps/place/Date+House+Caf%C3%A9/data=!4m7!3m6!1s0x479f575fa87eee19:0x88fb314bc9184562!8m2!3d49.4504447!4d11.0719098!16s%2Fg%2F11y0d9jtmd!19sChIJGe5-qF9Xn0cRYkUYyUsx-4g?authuser=0&hl=de&rclk=1,2026-05-03T17:34:57Z,active,success,
0x479f57a1096e0117:0xc6d57a9406b7a3d8,Der Beck,90402,"Marienstraße 8, 90402 Nürnberg",4.2,145,Bäckerei,49.4489179,11.0852957,02,Marienvorstadt,false,,,,,,,https://www.google.com/maps/place/Der+Beck/data=!4m7!3m6!1s0x479f57a1096e0117:0xc6d57a9406b7a3d8!8m2!3d49.4489179!4d11.0852957!16s%2Fg%2F1tjf97x4!19sChIJFwFuCaFXn0cR2KO3BpR61cY?authuser=0&hl=de&rclk=1,2026-05-03T12:27:12Z,active,success,
0x479f57a969005cf5:0xaddea52aca9d4385,Der Beck,90402,"Ludwigspl. 26-28, 90402 Nürnberg",4.2,959,Bäckerei,49.4505423,11.070314,01,"Altstadt, St. Lorenz",false,,,,,,,https://www.google.com/maps/place/Der+Beck/data=!4m7!3m6!1s0x479f57a969005cf5:0xaddea52aca9d4385!8m2!3d49.4505423!4d11.070314!16s%2Fg%2F1td_451q!19sChIJ9VwAaalXn0cRhUOdyiql3q0?authuser=0&hl=de&rclk=1,2026-05-03T12:26:45Z,active,success,
0x479f579ea2d82ce5:0x1629018b40cf568c,Der Beck,90402,"Vogelsgarten 2, 90402 Nürnberg",3.5,179,Bäckerei,49.4485354,11.0946884,11,Glockenhof,false,,,,,,,https://www.google.com/maps/place/Der+Beck/data=!4m7!3m6!1s0x479f579ea2d82ce5:0x1629018b40cf568c!8m2!3d49.4485354!4d11.0946884!16s%2Fg%2F11b8zl7zqn!19sChIJ5SzYop5Xn0cRjFbPQIsBKRY?authuser=0&hl=de&rclk=1,2026-05-03T12:37:31Z,active,success,
0x479f57d803bc9ff9:0xf848fd68cf2d7d81,Der Bäcker Feihl,90402,"Bahnhofspl. 9, 90402 Nürnberg",3,32,Bäckerei,49.4463062,11.0820183,13,Galgenhof,false,,,,,,,https://www.google.com/maps/place/Der+B%C3%A4cker+Feihl/data=!4m7!3m6!1s0x479f57d803bc9ff9:0xf848fd68cf2d7d81!8m2!3d49.4463062!4d11.0820183!16s%2Fg%2F11xyn_v36k!19sChIJ-Z-8A9hXn0cRgX0tz2j9SPg?authuser=0&hl=de&rclk=1,2026-05-03T12:38:50Z,active,success,
0x479f57a6baaa146b:0x169c9b6eb0e51956,Der Bäcker Feihl,90402,"Lorenzer Str. 21, 90402 Nürnberg",4.1,40,Bäckerei,49.4502774,11.081878,01,"Altstadt, St. Lorenz",false,,,,,,,https://www.google.com/maps/place/Der+B%C3%A4cker+Feihl/data=!4m7!3m6!1s0x479f57a6baaa146b:0x169c9b6eb0e51956!8m2!3d49.4502774!4d11.081878!16s%2Fg%2F1tlkbcj_!19sChIJaxSquqZXn0cRVhnlsG6bnBY?authuser=0&hl=de&rclk=1,2026-05-03T12:36:51Z,active,success,
0x479f57e495aed7f1:0x9e0efe876e720be1,"Dhairandbeauty Afro Braids, Extensions & Kosmetik",90402,"Breite G. 1, 90402 Nürnberg",5,7,Friseur / Kosmetik,49.4498773,11.0772646,01,"Altstadt, St. Lorenz",false,,,,,,,"https://www.google.com/maps/place/Dhairandbeauty+Afro+Braids,+Extensions+%26+Kosmetik/data=!4m7!3m6!1s0x479f57e495aed7f1:0x9e0efe876e720be1!8m2!3d49.4498773!4d11.0772646!16s%2Fg%2F11z61xvb6z!19sChIJ8deuleRXn0cR4Qtybof-Dp4?authuser=0&hl=de&rclk=1",2026-05-03T18:17:31Z,active,success,
0x479f57a63429ad8d:0xf726d787990599fd,Die Bombe - Nürnberg,90402,"Vordere Sterngasse 25, 90402 Nürnberg",2.4,494,Club / Diskothek,49.4471886,11.0782652,03,Tafelhof,false,,,,,,,https://www.google.com/maps/place/Die+Bombe+-+N%C3%BCrnberg/data=!4m7!3m6!1s0x479f57a63429ad8d:0xf726d787990599fd!8m2!3d49.4471886!4d11.0782652!16s%2Fg%2F12hrjt7_1!19sChIJja0pNKZXn0cR_ZkFmYfXJvc?authuser=0&hl=de&rclk=1,2026-05-03T17:44:04Z,active,success,
0x479f57a70597a3a9:0xb87febe66d3fab53,Die Rosi,90402,"Luitpoldstraße 13, 90402 Nürnberg",3.5,315,Club / Diskothek,49.4479596,11.0789495,03,Tafelhof,false,,,,,,,https://www.google.com/maps/place/Die+Rosi/data=!4m7!3m6!1s0x479f57a70597a3a9:0xb87febe66d3fab53!8m2!3d49.4479596!4d11.0789495!16s%2Fg%2F11ckvdz2p9!19sChIJqaOXBadXn0cRU6s_bebrf7g?authuser=0&hl=de&rclk=1,2026-05-03T17:43:45Z,active,success,
0x479f57a8d73cf77b:0x954b6ba4ac38f997,Die TUI in Nürnberg - Ihr Reisebüro in der Nürnberger Innenstadt,90402,"Färberstraße 2, 90402 Nürnberg",4.9,163,Sonstiges,49.4512286,11.0732421,01,"Altstadt, St. Lorenz",false,,,,,,,https://www.google.com/maps/place/Die+TUI+in+N%C3%BCrnberg+-+Ihr+Reiseb%C3%BCro+in+der+N%C3%BCrnberger+Innenstadt/data=!4m7!3m6!1s0x479f57a8d73cf77b:0x954b6ba4ac38f997!8m2!3d49.4512286!4d11.0732421!16s%2Fg%2F1tj2gwsg!19sChIJe_c816hXn0cRl_k4rKRrS5U?authuser=0&hl=de&rclk=1,2026-05-03T23:00:46Z,active,success,
0x479f57a653fb8599:0xce7c995ed54438c6,Die TUI in Nürnberg- Kreuzfahrten und mehr...Ihr Reisebüro am Hallplatz,90402,"Hallpl. 19, 90402 Nürnberg",4.9,136,Sonstiges,49.4490192,11.0782873,01,"Altstadt, St. Lorenz",false,,,,,,,https://www.google.com/maps/place/Die+TUI+in+N%C3%BCrnberg-+Kreuzfahrten+und+mehr...Ihr+Reiseb%C3%BCro+am+Hallplatz/data=!4m7!3m6!1s0x479f57a653fb8599:0xce7c995ed54438c6!8m2!3d49.4490192!4d11.0782873!16s%2Fg%2F11ckr755pn!19sChIJmYX7U6ZXn0cRxjhE1V6ZfM4?authuser=0&hl=de&rclk=1,2026-05-03T18:00:02Z,active,success,
0x479f57a619280005:0x5177c983d59c9d7d,Dilek und Friseure,90402,"Brunnengasse 15, 90402 Nürnberg",4.7,195,Friseur / Kosmetik,49.450282,11.076413,01,"Altstadt, St. Lorenz",true,6,10,8,3.94,4.554,Sechs bis zehn Bewertungen aufgrund von Beschwerden wegen Diffamierung entfernt.,https://www.google.com/maps/place/Dilek+und+Friseure/data=!4m7!3m6!1s0x479f57a619280005:0x5177c983d59c9d7d!8m2!3d49.450282!4d11.076413!16s%2Fg%2F11ckvwdp2w!19sChIJBQAoGaZXn0cRfZ2c1YPJd1E?authuser=0&hl=de&rclk=1,2026-05-03T18:09:30Z,active,success,
0x479f57a8fd12dc3b:0xba58d16f7e5b7bae,Dragon Gym | Kampfkunstschule Nürnberg,90402,"Färberstraße 10, 90402 Nürnberg",4.6,26,Fitness / Sport,49.4497571,11.0724782,01,"Altstadt, St. Lorenz",false,,,,,,,https://www.google.com/maps/place/Dragon+Gym+%7C+Kampfkunstschule+N%C3%BCrnberg/data=!4m7!3m6!1s0x479f57a8fd12dc3b:0xba58d16f7e5b7bae!8m2!3d49.4497571!4d11.0724782!16s%2Fg%2F11clsjssdr!19sChIJO9wS_ahXn0cRrntbfm_RWLo?authuser=0&hl=de&rclk=1,2026-05-03T18:53:22Z,active,success,
0x479f576b14cbabf1:0xc2c040150cce6925,Dream Art Jiu-Jitsu Nürnberg,90402,"Willy-Brandt-Platz 4, 90402 Nürnberg",4.9,144,Sonstiges,49.4484224,11.0856532,02,Marienvorstadt,false,,,,,,,https://www.google.com/maps/place/Dream+Art+Jiu-Jitsu+N%C3%BCrnberg/data=!4m7!3m6!1s0x479f576b14cbabf1:0xc2c040150cce6925!8m2!3d49.4484224!4d11.0856532!16s%2Fg%2F11hd4z3_dd!19sChIJ8avLFGtXn0cRJWnODBVAwMI?authuser=0&hl=de&rclk=1,2026-05-03T18:53:33Z,active,success,
0x479f5799352fd5f5:0xf30e103685ba11e,Du & Ich Italienisches Restaurant,90402,"Königstraße 17A, 90402 Nürnberg",4.8,2340,Restaurant,49.4513747,11.0783709,01,"Altstadt, St. Lorenz",true,21,50,35.5,1.49,4.743,21 bis 50 Bewertungen aufgrund von Beschwerden wegen Diffamierung entfernt.,https://www.google.com/maps/place/Du+%26+Ich+Italienisches+Restaurant/data=!4m7!3m6!1s0x479f5799352fd5f5:0xf30e103685ba11e!8m2!3d49.4513747!4d11.0783709!16s%2Fg%2F11wnfbcfgq!19sChIJ9dUvNZlXn0cRHqFbaAPhMA8?authuser=0&hl=de&rclk=1,2026-05-03T12:11:41Z,active,success,
0x479f57a65318a4f5:0xc735219229f71189,Dubliner Irish Pub,90402,"Königstraße 59, 90402 Nürnberg",3.8,808,Bar / Kneipe,49.4490865,11.0799993,01,"Altstadt, St. Lorenz",false,,,,,,,https://www.google.com/maps/place/Dubliner+Irish+Pub/data=!4m7!3m6!1s0x479f57a65318a4f5:0xc735219229f71189!8m2!3d49.4490865!4d11.0799993!16s%2Fg%2F1w9y02tb!19sChIJ9aQYU6ZXn0cRiRH3KZIhNcc?authuser=0&hl=de&rclk=1,2026-05-03T17:21:35Z,active,success,
0x479f578c5e4efd3d:0x8111f3bafb6ede3e,EDEKA Kulinarikwelten Ludwigsplatz,90402,"Untergeschoss / Zugang U-Bahn, Ludwigspl. 25-27, 90402 Nürnberg",3.7,183,Lebensmittel,49.4502581,11.0708265,01,"Altstadt, St. Lorenz",false,,,,,,,https://www.google.com/maps/place/EDEKA+Kulinarikwelten+Ludwigsplatz/data=!4m7!3m6!1s0x479f578c5e4efd3d:0x8111f3bafb6ede3e!8m2!3d49.4502581!4d11.0708265!16s%2Fg%2F11v9z34s7c!19sChIJPf1OXoxXn0cRPt5u-7rzEYE?authuser=0&hl=de&rclk=1,2026-05-03T12:46:26Z,active,success,
0x479f57a84a2f5df5:0x4b4622637d87355f,EKU inn,90402,"Färberstraße 39, 90402 Nürnberg",4.4,2355,Café / Konditorei,49.4481163,11.0721731,03,Tafelhof,false,,,,,,,https://www.google.com/maps/place/EKU+inn/data=!4m7!3m6!1s0x479f57a84a2f5df5:0x4b4622637d87355f!8m2!3d49.4481163!4d11.0721731!16s%2Fg%2F1tdlt8bd!19sChIJ9V0vSqhXn0cRXzWHfWMiRks?authuser=0&hl=de&rclk=1,2026-05-03T12:20:45Z,active,success,
0x479f57a7715469f9:0x52b2195478a91889,Eddy would attack! GbR,90402,"Frauentormauer 18, 90402 Nürnberg",4.9,181,Sonstiges,49.447077,11.078552,03,Tafelhof,false,,,,,,,https://www.google.com/maps/place/Eddy+would+attack!+GbR/data=!4m7!3m6!1s0x479f57a7715469f9:0x52b2195478a91889!8m2!3d49.447077!4d11.078552!16s%2Fg%2F11c5xtp45w!19sChIJ-WlUcadXn0cRiRipeFQZslI?authuser=0&hl=de&rclk=1,2026-05-03T17:34:39Z,active,success,
0x479f57fa6adb3b89:0xee58d6cf38a4d8b8,Eduard's by Breuninger Nürnberg,90402,"Karolinenstraße 34/2. OG, 90402 Nürnberg",4.1,15,Bar / Kneipe,49.4513443,11.0751314,01,"Altstadt, St. Lorenz",false,,,,,,,https://www.google.com/maps/place/Eduard%27s+by+Breuninger+N%C3%BCrnberg/data=!4m7!3m6!1s0x479f57fa6adb3b89:0xee58d6cf38a4d8b8!8m2!3d49.4513443!4d11.0751314!16s%2Fg%2F11j73nx133!19sChIJiTvbavpXn0cRuNikOM_WWO4?authuser=0&hl=de&rclk=1,2026-05-03T17:42:11Z,active,success,
0x479f57007b5328fd:0x566c39465d515936,Edwards Brownie Store,90402,"Vordere Sterngasse 11, 90402 Nürnberg",5,2,Bäckerei,49.4477305,11.0783775,03,Tafelhof,false,,,,,,,https://www.google.com/maps/place/Edwards+Brownie+Store/data=!4m7!3m6!1s0x479f57007b5328fd:0x566c39465d515936!8m2!3d49.4477305!4d11.0783775!16s%2Fg%2F11nh_3m7wj!19sChIJ_ShTewBXn0cRNllRXUY5bFY?authuser=0&hl=de&rclk=1,2026-05-03T17:19:54Z,active,success,
0x479f57e98b07e891:0xbda0a2ab1594b4df,Egg La,90402,"Färberstraße 48, 90402 Nürnberg",4.7,372,Imbiss,49.4481031,11.0718098,03,Tafelhof,false,,,,,,,https://www.google.com/maps/place/Egg+La/data=!4m7!3m6!1s0x479f57e98b07e891:0xbda0a2ab1594b4df!8m2!3d49.4481031!4d11.0718098!16s%2Fg%2F11vyrdl9v2!19sChIJkegHi-lXn0cR37SUFauioL0?authuser=0&hl=de&rclk=1,2026-05-03T12:30:38Z,active,success,
0x479f57a8de83140d:0x349cd525c8583921,Einhorn Apotheke - Nürnberg,90402,"Färberstraße 7, 90402 Nürnberg",4.7,53,Apotheke,49.4505196,11.073165,01,"Altstadt, St. Lorenz",false,,,,,,,https://www.google.com/maps/place/Einhorn+Apotheke+-+N%C3%BCrnberg/data=!4m7!3m6!1s0x479f57a8de83140d:0x349cd525c8583921!8m2!3d49.4505196!4d11.073165!16s%2Fg%2F1th62chn!19sChIJDRSD3qhXn0cRITlYyCXVnDQ?authuser=0&hl=de&rclk=1,2026-05-03T19:20:20Z,active,success,
0x479f57a6bd557c37:0xba6ba8ac67c0478f,Eis & Café Venezia,90402,"Lorenzer Str. 7, 90402 Nürnberg",4,155,Café / Konditorei,49.4504307,11.0811,01,"Altstadt, St. Lorenz",false,,,,,,,https://www.google.com/maps/place/Eis+%26+Caf%C3%A9+Venezia/data=!4m7!3m6!1s0x479f57a6bd557c37:0xba6ba8ac67c0478f!8m2!3d49.4504307!4d11.0811!16s%2Fg%2F11c6w0sf3r!19sChIJN3xVvaZXn0cRj0fAZ6yoa7o?authuser=0&hl=de&rclk=1,2026-05-03T12:28:59Z,active,success,
0x479f57a5f01db1e3:0x715cf9ca1a217265,Eiscafé Sirena,90402,"Königstraße 6, 90402 Nürnberg",4.7,321,Café / Konditorei,49.4520634,11.0775165,01,"Altstadt, St. Lorenz",true,6,10,8,2.43,4.61,Sechs bis zehn Bewertungen aufgrund von Beschwerden wegen Diffamierung entfernt.,https://www.google.com/maps/place/Eiscaf%C3%A9+Sirena/data=!4m7!3m6!1s0x479f57a5f01db1e3:0x715cf9ca1a217265!8m2!3d49.4520634!4d11.0775165!16s%2Fg%2F1tcw753j!19sChIJ47Ed8KVXn0cRZXIhGsr5XHE?authuser=0&hl=de&rclk=1,2026-05-03T12:26:33Z,active,success,
0x479f57dec70cfeff:0xaa68dfa8d6a41606,Espressolab,90402,"Lorenzer Pl. 3, 90402 Nürnberg",4.5,715,Café / Konditorei,49.4513259,11.0786157,01,"Altstadt, St. Lorenz",true,51,100,75.5,9.55,4.166,51 bis 100 Bewertungen aufgrund von Beschwerden wegen Diffamierung entfernt.,https://www.google.com/maps/place/Espressolab/data=!4m7!3m6!1s0x479f57dec70cfeff:0xaa68dfa8d6a41606!8m2!3d49.4513259!4d11.0786157!16s%2Fg%2F11k7s5syqf!19sChIJ__4Mx95Xn0cRBhak1qjfaKo?authuser=0&hl=de&rclk=1,2026-05-03T12:21:04Z,active,success,
0x479f57004e468021:0xc2e32991b2d63c0b,Essentials Café,90402,"Nonnengasse 12-14, 90402 Nürnberg",4.8,104,Café / Konditorei,49.4513482,11.080345,01,"Altstadt, St. Lorenz",false,,,,,,,https://www.google.com/maps/place/Essentials+Caf%C3%A9/data=!4m7!3m6!1s0x479f57004e468021:0xc2e32991b2d63c0b!8m2!3d49.4513482!4d11.080345!16s%2Fg%2F11yhmp_xlt!19sChIJIYBGTgBXn0cRCzzWspEp48I?authuser=0&hl=de&rclk=1,2026-05-03T12:23:47Z,active,success,
0x479f57a7a8b19e2b:0x7a4f6480d035ff74,EuroShop,90402,"Vordere Sterngasse 10, 90402 Nürnberg",4,586,Club / Diskothek,49.44812,11.07809,03,Tafelhof,false,,,,,,,https://www.google.com/maps/place/EuroShop/data=!4m7!3m6!1s0x479f57a7a8b19e2b:0x7a4f6480d035ff74!8m2!3d49.44812!4d11.07809!16s%2Fg%2F11b6dqh9gp!19sChIJK56xqKdXn0cRdP810IBkT3o?authuser=0&hl=de&rclk=1,2026-05-03T19:13:27Z,active,success,
0x479f57a769e78f5f:0x206a9a9257c2ce5c,Everybodysclub,90402,"Willy-Brandt-Platz 4, 90402 Nürnberg",,,Club / Diskothek,49.4484224,11.0856532,02,Marienvorstadt,false,,,,,,,https://www.google.com/maps/place/Everybodysclub/data=!4m7!3m6!1s0x479f57a769e78f5f:0x206a9a9257c2ce5c!8m2!3d49.4484224!4d11.0856532!16s%2Fg%2F11vssg7hhw!19sChIJX4_naadXn0cRXM7CV5KaaiA?authuser=0&hl=de&rclk=1,2026-05-03T17:56:32Z,active,success,
0x479f578dbcf6803b:0xcc23ede6dcdd3e58,Explosive Kampfmethode,90402,"Jakobstraße 51, 90402 Nürnberg",5,14,Sonstiges,49.4486576,11.0711681,03,Tafelhof,false,,,,,,,https://www.google.com/maps/place/Explosive+Kampfmethode/data=!4m7!3m6!1s0x479f578dbcf6803b:0xcc23ede6dcdd3e58!8m2!3d49.4486576!4d11.0711681!16s%2Fg%2F11h3g8ymb9!19sChIJO4D2vI1Xn0cRWD7d3ObtI8w?authuser=0&hl=de&rclk=1,2026-05-03T18:57:17Z,active,success,
0x479f57afa623858f:0x2e1d3ded33a413f0,F-Bar,90402,"Ottostraße 28, 90402 Nürnberg",,0,Bar / Kneipe,49.4484107,11.0679783,04,Gostenhof,false,,,,,,,https://www.google.com/maps/place/F-Bar/data=!4m7!3m6!1s0x479f57afa623858f:0x2e1d3ded33a413f0!8m2!3d49.4484107!4d11.0679783!16s%2Fg%2F1tcvn87h!19sChIJj4Ujpq9Xn0cR8BOkM-09HS4?authuser=0&hl=de&rclk=1,2026-05-03T17:45:50Z,no_public_reviews,success,
0x479f57a129ad8907:0x4f9b777c6381d98,FIT STAR Fitnessstudio Nürnberg-Zentrum,90402,"Königstorgraben 11, 90402 Nürnberg",4.1,1036,Friseur / Kosmetik,49.4483831,11.082838,03,Tafelhof,false,,,,,,,https://www.google.com/maps/place/FIT+STAR+Fitnessstudio+N%C3%BCrnberg-Zentrum/data=!4m7!3m6!1s0x479f57a129ad8907:0x4f9b777c6381d98!8m2!3d49.4483831!4d11.082838!16s%2Fg%2F11b77vwyjg!19sChIJB4mtKaFXn0cRmB04xne3-QQ?authuser=0&hl=de&rclk=1,2026-05-03T17:56:20Z,active,success,
0x479f578572c17d99:0x1941e6e351ba7c65,FTB Fitness Training Nürnberg,90402,"Jakobstraße 51, 90402 Nürnberg",4.6,220,Friseur / Kosmetik,49.4487696,11.0712063,03,Tafelhof,true,2,5,3.5,1.57,4.544,Zwei bis fünf Bewertungen aufgrund von Beschwerden wegen Diffamierung entfernt.,https://www.google.com/maps/place/FTB+Fitness+Training+N%C3%BCrnberg/data=!4m7!3m6!1s0x479f578572c17d99:0x1941e6e351ba7c65!8m2!3d49.4487696!4d11.0712063!16s%2Fg%2F11smc7q38x!19sChIJmX3BcoVXn0cRZXy6UePmQRk?authuser=0&hl=de&rclk=1,2026-05-03T18:42:40Z,active,success,
0x479f578388166323:0x7b0fb1735b69f4d9,FULL HOUSE Hotel Nürnberg City,90402,"Krebsgasse 2, 90402 Nürnberg",3.7,17,Hotel,49.4507868,11.075009,01,"Altstadt, St. Lorenz",false,,,,,,,https://www.google.com/maps/place/FULL+HOUSE+Hotel+N%C3%BCrnberg+City/data=!4m10!3m9!1s0x479f578388166323:0x7b0fb1735b69f4d9!5m2!4m1!1i2!8m2!3d49.4507868!4d11.075009!16s%2Fg%2F11t9y6w60r!19sChIJI2MWiINXn0cR2fRpW3OxD3s?authuser=0&hl=de&rclk=1,2026-05-03T19:47:17Z,active,success,
0x479f57a886399d8d:0xed1a62754343a7d6,Fachmarktzentrum Maximum,90402,"Kornmarkt 8, 90402 Nürnberg",4.1,115,Sonstiges,49.449239,11.0749458,01,"Altstadt, St. Lorenz",false,,,,,,,https://www.google.com/maps/place/Fachmarktzentrum+Maximum/data=!4m7!3m6!1s0x479f57a886399d8d:0xed1a62754343a7d6!8m2!3d49.449239!4d11.0749458!16s%2Fg%2F11gf98cqnk!19sChIJjZ05hqhXn0cR1qdDQ3ViGu0?authuser=0&hl=de&rclk=1,2026-05-03T19:01:37Z,active,success,
0x479f57837fadcdf3:0xaed3e667b28a7833,Falco Manufaktur,90402,"Luitpoldstraße 12, 90402 Nürnberg",4.7,877,Pizzeria,49.4482874,11.0789462,03,Tafelhof,true,11,20,15.5,1.74,4.636,11 bis 20 Bewertungen aufgrund von Beschwerden wegen Diffamierung entfernt.,https://www.google.com/maps/place/Falco+Manufaktur/data=!4m7!3m6!1s0x479f57837fadcdf3:0xaed3e667b28a7833!8m2!3d49.4482874!4d11.0789462!16s%2Fg%2F11r6z15dd4!19sChIJ882tf4NXn0cRM3iKsmfm064?authuser=0&hl=de&rclk=1,2026-05-03T12:17:32Z,active,success,
0x479f57aa1984a9bb:0x24b8f345779ff92,FiRo Gastro GmbH,90402,"Ottostraße 33, 90402 Nürnberg",3.7,7,Club / Diskothek,49.448135,11.0676145,04,Gostenhof,false,,,,,,,https://www.google.com/maps/place/FiRo+Gastro+GmbH/data=!4m7!3m6!1s0x479f57aa1984a9bb:0x24b8f345779ff92!8m2!3d49.448135!4d11.0676145!16s%2Fg%2F11btm9sr9z!19sChIJu6mEGapXn0cRkv95VzSPSwI?authuser=0&hl=de&rclk=1,2026-05-03T17:58:05Z,active,success,
0x479f57a852933281:0xa9611c880a00500a,Figaro da Monika,90402,"Färberstraße 28, 90402 Nürnberg",4.7,97,Friseur / Kosmetik,49.4487296,11.0720811,03,Tafelhof,false,,,,,,,https://www.google.com/maps/place/Figaro+da+Monika/data=!4m7!3m6!1s0x479f57a852933281:0xa9611c880a00500a!8m2!3d49.4487296!4d11.0720811!16s%2Fg%2F1tgb6bp7!19sChIJgTKTUqhXn0cRClAACogcYak?authuser=0&hl=de&rclk=1,2026-05-03T18:16:52Z,active,success,
0x479f57a6d59b8687:0xcc97f161716f25b5,Filmhauscafé,90402,"Königstraße 93, 90402 Nürnberg",4.3,27,Café / Konditorei,49.4484109,11.0817605,03,Tafelhof,false,,,,,,,https://www.google.com/maps/place/Filmhauscaf%C3%A9/data=!4m7!3m6!1s0x479f57a6d59b8687:0xcc97f161716f25b5!8m2!3d49.4484109!4d11.0817605!16s%2Fg%2F1hc2tnzqs!19sChIJh4ab1aZXn0cRtSVvcWHxl8w?authuser=0&hl=de&rclk=1,2026-05-03T12:28:20Z,active,success,
0x479f5776f64aad11:0x6832801780e43204,Finish Line GmbH,90402,"Karl-Grillenberger-Straße 3, 90402 Nürnberg",4.8,426,Sonstiges,49.451319,11.0698369,01,"Altstadt, St. Lorenz",false,,,,,,,https://www.google.com/maps/place/Finish+Line+GmbH/data=!4m7!3m6!1s0x479f5776f64aad11:0x6832801780e43204!8m2!3d49.451319!4d11.0698369!16s%2Fg%2F1td1cdr4!19sChIJEa1K9nZXn0cRBDLkgBeAMmg?authuser=0&hl=de&rclk=1,2026-05-03T19:00:30Z,active,success,
0x479f57a72f2375b9:0x63728a6dfd0d4fd0,Finnegan's Harp Irish Pub,90402,"Königstraße 51, 90402 Nürnberg",4.4,3188,Bar / Kneipe,49.449351,11.0796826,01,"Altstadt, St. Lorenz",false,,,,,,,https://www.google.com/maps/place/Finnegan%27s+Harp+Irish+Pub/data=!4m7!3m6!1s0x479f57a72f2375b9:0x63728a6dfd0d4fd0!8m2!3d49.449351!4d11.0796826!16s%2Fg%2F1w8w8_zg!19sChIJuXUjL6dXn0cR0E8N_W2KcmM?authuser=0&hl=de&rclk=1,2026-05-03T12:22:42Z,active,success,
0x479f57b5cc9adb95:0x9b40b10a0c260f9c,Fit Point Sportnahrung,90402,"Eingang Nasch Leder, Breite G. 20/2. Etage, 90402 Nürnberg",5,45,Sonstiges,49.4501244,11.0762682,01,"Altstadt, St. Lorenz",false,,,,,,,https://www.google.com/maps/place/Fit+Point+Sportnahrung/data=!4m7!3m6!1s0x479f57b5cc9adb95:0x9b40b10a0c260f9c!8m2!3d49.4501244!4d11.0762682!16s%2Fg%2F11x8vc3rj5!19sChIJlduazLVXn0cRnA8mDAqxQJs?authuser=0&hl=de&rclk=1,2026-05-03T18:48:49Z,active,success,
0x479f57a8f108b749:0xdeb4a5e7b7781b1b,Fitness First Nürnberg,90402,"Färberstraße 11, 90402 Nürnberg",4.5,3249,Friseur / Kosmetik,49.449751,11.072986,01,"Altstadt, St. Lorenz",false,,,,,,,https://www.google.com/maps/place/Fitness+First+N%C3%BCrnberg/data=!4m7!3m6!1s0x479f57a8f108b749:0xdeb4a5e7b7781b1b!8m2!3d49.449751!4d11.072986!16s%2Fg%2F11c1xdvz6l!19sChIJSbcI8ahXn0cRGxt4t-eltN4?authuser=0&hl=de&rclk=1,2026-05-03T18:42:21Z,active,success,
0x479f57e9039092b5:0xce55c3ab3ae8dee8,Fitness Park,90402,,5,1,Friseur / Kosmetik,49.4538332,11.1065387,28,Tullnau,false,,,,,,,https://www.google.com/maps/place/Fitness+Park/data=!4m7!3m6!1s0x479f57e9039092b5:0xce55c3ab3ae8dee8!8m2!3d49.4538332!4d11.1065387!16s%2Fg%2F11ll8_3frp!19sChIJtZKQA-lXn0cR6N7oOqvDVc4?authuser=0&hl=de&rclk=1,2026-05-03T18:42:35Z,active,success,
0x479f57a1a910a4f9:0xdc7350ea9e82ec84,FitnessBär,90402,"Bahnhofstraße 39, 90402 Nürnberg",5,7,Fitness / Sport,49.4480777,11.0898376,11,Glockenhof,false,,,,,,,https://www.google.com/maps/place/FitnessB%C3%A4r/data=!4m7!3m6!1s0x479f57a1a910a4f9:0xdc7350ea9e82ec84!8m2!3d49.4480777!4d11.0898376!16s%2Fg%2F11b6_hwt4g!19sChIJ-aQQqaFXn0cRhOyCnupQc9w?authuser=0&hl=de&rclk=1,2026-05-03T18:50:47Z,active,success,
0x479f578689a3128d:0x97de1f1f5e7872a0,Five Guys Burgers and Fries Nürnberg Lorenzkirche,90402,"Karolinenstraße 13, 90402 Nürnberg",3.7,2599,Imbiss,49.4508686,11.0764884,01,"Altstadt, St. Lorenz",false,,,,,,,https://www.google.com/maps/place/Five+Guys+Burgers+and+Fries+N%C3%BCrnberg+Lorenzkirche/data=!4m7!3m6!1s0x479f578689a3128d:0x97de1f1f5e7872a0!8m2!3d49.4508686!4d11.0764884!16s%2Fg%2F11lm0x4v8y!19sChIJjRKjiYZXn0cRoHJ4Xh8f3pc?authuser=0&hl=de&rclk=1,2026-05-03T12:21:50Z,active,success,
0x479f57a80e9051cb:0xab53e9aee03e248d,Five Reasons Hotel & Hostel,90402,"Frauentormauer 42, 90402 Nürnberg",4.6,1136,Hotel,49.4474276,11.0742425,03,Tafelhof,false,,,,,,,https://www.google.com/maps/place/Five+Reasons+Hotel+%26+Hostel/data=!4m10!3m9!1s0x479f57a80e9051cb:0xab53e9aee03e248d!5m2!4m1!1i2!8m2!3d49.4474276!4d11.0742425!16s%2Fg%2F1hm2ykjth!19sChIJy1GQDqhXn0cRjSQ-4K7pU6s?authuser=0&hl=de&rclk=1,2026-05-03T17:59:37Z,active,success,
0x479f570078da25c7:0x29c9ea90d170f4f1,Flavor House,90402,"Dr.-Kurt-Schumacher-Straße 17, 90402 Nürnberg",4.6,44,Imbiss,49.4492905,11.0719951,01,"Altstadt, St. Lorenz",false,,,,,,,https://www.google.com/maps/place/Flavor+House/data=!4m7!3m6!1s0x479f570078da25c7:0x29c9ea90d170f4f1!8m2!3d49.4492905!4d11.0719951!16s%2Fg%2F11zkqrvh71!19sChIJxyXaeABXn0cR8fRw0ZDqySk?authuser=0&hl=de&rclk=1,2026-05-03T12:30:10Z,active,success,
0x479f578fb02c6b3b:0xce8ed0e5d1a3dac2,FlexClub,90402,"Dr.-Kurt-Schumacher-Straße 13, 90402 Nürnberg",4.8,28,Friseur / Kosmetik,49.4492534,11.0727114,01,"Altstadt, St. Lorenz",false,,,,,,,https://www.google.com/maps/place/FlexClub/data=!4m7!3m6!1s0x479f578fb02c6b3b:0xce8ed0e5d1a3dac2!8m2!3d49.4492534!4d11.0727114!16s%2Fg%2F11jsb6l0c3!19sChIJO2sssI9Xn0cRwtqj0eXQjs4?authuser=0&hl=de&rclk=1,2026-05-03T17:58:17Z,active,success,
0x479f570053f03cdd:0x3d5b09aca823da15,Foodcorner Nürnberg,90402,"Dr.-Kurt-Schumacher-Straße 17, 90402 Nürnberg",4,15,Imbiss,49.4493308,11.0719724,01,"Altstadt, St. Lorenz",false,,,,,,,https://www.google.com/maps/place/Foodcorner+N%C3%BCrnberg/data=!4m7!3m6!1s0x479f570053f03cdd:0x3d5b09aca823da15!8m2!3d49.4493308!4d11.0719724!16s%2Fg%2F11y3pfdpp5!19sChIJ3TzwUwBXn0cRFdojqKwJWz0?authuser=0&hl=de&rclk=1,2026-05-03T12:21:09Z,active,success,
0x479f579b8c156c13:0x4d79eb886e36c3b9,Foodtruck Standort »Milchhofpalais«,90402,"Kressengartenstraße 2, 90402 Nürnberg",4.6,40,Restaurant,49.4495036,11.0979392,02,Marienvorstadt,false,,,,,,,https://www.google.com/maps/place/Foodtruck+Standort+%C2%BBMilchhofpalais%C2%AB/data=!4m7!3m6!1s0x479f579b8c156c13:0x4d79eb886e36c3b9!8m2!3d49.4495036!4d11.0979392!16s%2Fg%2F11cr__tn9p!19sChIJE2wVjJtXn0cRucM2bojreU0?authuser=0&hl=de&rclk=1,2026-05-03T17:49:13Z,active,success,
0x479f57e8bf701edd:0xe05e2d1bf1a050cb,FranKäs,90402,"Hintere Sterngasse 29, 90402 Nürnberg",4.6,91,Bar / Kneipe,49.4472778,11.0783475,03,Tafelhof,false,,,,,,,https://www.google.com/maps/place/FranK%C3%A4s/data=!4m7!3m6!1s0x479f57e8bf701edd:0xe05e2d1bf1a050cb!8m2!3d49.4472778!4d11.0783475!16s%2Fg%2F11xw4z1mss!19sChIJ3R5wv-hXn0cRy1Cg8RstXuA?authuser=0&hl=de&rclk=1,2026-05-03T17:49:20Z,active,success,
0x479f57a9bb5f2d15:0xc9266cd8df5656e6,Franconia City Hotel,90402,"Zirkelschmiedsgasse 12, 90402 Nürnberg",4.8,178,Hotel,49.4486583,11.0706361,03,Tafelhof,false,,,,,,,https://www.google.com/maps/place/Franconia+City+Hotel/data=!4m10!3m9!1s0x479f57a9bb5f2d15:0xc9266cd8df5656e6!5m2!4m1!1i2!8m2!3d49.4486583!4d11.0706361!16s%2Fg%2F12hy_jkbt!19sChIJFS1fu6lXn0cR5lZW39hsJsk?authuser=0&hl=de&rclk=1,2026-05-03T17:30:02Z,active,success,
0x479f576bf778269d:0x7b696bafdf0c166b,Frankenstraße,90402,,4.5,2,Sonstiges,49.4295841,11.0871471,14,Hummelstein,false,,,,,,,https://www.google.com/maps/place/Frankenstra%C3%9Fe/data=!4m7!3m6!1s0x479f576bf778269d:0x7b696bafdf0c166b!8m2!3d49.4295841!4d11.0871471!16s%2Fg%2F11hbvttyml!19sChIJnSZ492tXn0cRaxYM369raXs?authuser=0&hl=de&rclk=1,2026-05-03T19:38:08Z,active,success,
0x479f57aa6c248b5f:0x70344b3ad0770c94,FriedChicks,90402,"Dr.-Kurt-Schumacher-Straße 17, 90402 Nürnberg",4.9,220,Imbiss,49.4492905,11.0719951,01,"Altstadt, St. Lorenz",false,,,,,,,https://www.google.com/maps/place/FriedChicks/data=!4m7!3m6!1s0x479f57aa6c248b5f:0x70344b3ad0770c94!8m2!3d49.4492905!4d11.0719951!16s%2Fg%2F11xcwk6zqm!19sChIJX4skbKpXn0cRlAx30DpLNHA?authuser=0&hl=de&rclk=1,2026-05-03T12:30:27Z,active,success,
0x479f57005592a7ad:0x6741eb48deb48c1f,Fries Fabrique,90402,"Königstraße 79, 90402 Nürnberg",4.8,31,Imbiss,49.448386,11.0808739,03,Tafelhof,true,2,5,3.5,10.14,4.414,Zwei bis fünf Bewertungen aufgrund von Beschwerden wegen Diffamierung entfernt.,https://www.google.com/maps/place/Fries+Fabrique/data=!4m7!3m6!1s0x479f57005592a7ad:0x6741eb48deb48c1f!8m2!3d49.448386!4d11.0808739!16s%2Fg%2F11z5pf3cgm!19sChIJraeSVQBXn0cRH4y03kjrQWc?authuser=0&hl=de&rclk=1,2026-05-03T12:30:21Z,active,success,
0x479f57be6b79b8c3:0xba1908a8d1695fbe,Friseur Cayenn Toy Nürnberg,90402,,4.8,508,Friseur / Kosmetik,49.4587519,11.0977449,09,Wöhrd,false,,,,,,,https://www.google.com/maps/place/Friseur+Cayenn+Toy+N%C3%BCrnberg/data=!4m7!3m6!1s0x479f57be6b79b8c3:0xba1908a8d1695fbe!8m2!3d49.4587519!4d11.0977449!16s%2Fg%2F1thtnlgm!19sChIJw7h5a75Xn0cRvl9p0agIGbo?authuser=0&hl=de&rclk=1,2026-05-03T18:19:23Z,active,success,
0x479f57a1096e0117:0xce8c3b0741537ae8,Friseur Contrast,90402,"Marienstraße 8, 90402 Nürnberg",4.5,229,Friseur / Kosmetik,49.4488591,11.0854096,02,Marienvorstadt,false,,,,,,,https://www.google.com/maps/place/Friseur+Contrast/data=!4m7!3m6!1s0x479f57a1096e0117:0xce8c3b0741537ae8!8m2!3d49.4488591!4d11.0854096!16s%2Fg%2F1tc_32gd!19sChIJFwFuCaFXn0cR6HpTQQc7jM4?authuser=0&hl=de&rclk=1,2026-05-03T18:11:14Z,active,success,
0x479f571adb1dc9db:0x4a88e350a66d5116,Friseur Legende,90402,"Bahnhofstraße 27, 90402 Nürnberg",4.9,143,Friseur / Kosmetik,49.447716,11.0882447,11,Glockenhof,false,,,,,,,https://www.google.com/maps/place/Friseur+Legende/data=!4m7!3m6!1s0x479f571adb1dc9db:0x4a88e350a66d5116!8m2!3d49.447716!4d11.0882447!16s%2Fg%2F11p4pxx_tj!19sChIJ28kd2xpXn0cRFlFtplDjiEo?authuser=0&hl=de&rclk=1,2026-05-03T18:10:55Z,active,success,
0x479f57a16d5e6159:0x333ba27c68575363,Friseur Rokoko,90402,"Gleißbühlstraße 7, 90402 Nürnberg",4.5,62,Friseur / Kosmetik,49.4493905,11.0849823,02,Marienvorstadt,false,,,,,,,https://www.google.com/maps/place/Friseur+Rokoko/data=!4m7!3m6!1s0x479f57a16d5e6159:0x333ba27c68575363!8m2!3d49.4493905!4d11.0849823!16s%2Fg%2F1tfmgtg0!19sChIJWWFebaFXn0cRY1NXaHyiOzM?authuser=0&hl=de&rclk=1,2026-05-03T18:14:38Z,active,success,
0x479f57a692e85fed:0x1a2ba6bd75c2c958,Friseur Schnittstelle,90402,"Theatergasse 13, 90402 Nürnberg",4.9,30,Friseur / Kosmetik,49.4498474,11.0801665,01,"Altstadt, St. Lorenz",false,,,,,,,https://www.google.com/maps/place/Friseur+Schnittstelle/data=!4m7!3m6!1s0x479f57a692e85fed:0x1a2ba6bd75c2c958!8m2!3d49.4498474!4d11.0801665!16s%2Fg%2F11clsd85b1!19sChIJ7V_okqZXn0cRWMnCdb2mKxo?authuser=0&hl=de&rclk=1,2026-05-03T18:12:23Z,active,success,
0x479f57abff40e84d:0xe6d61ede33dc92a7,Friseur Staudt,90402,"Kappengasse 6, 90402 Nürnberg",4.7,34,Friseur / Kosmetik,49.4520376,11.0695485,01,"Altstadt, St. Lorenz",false,,,,,,,https://www.google.com/maps/place/Friseur+Staudt/data=!4m7!3m6!1s0x479f57abff40e84d:0xe6d61ede33dc92a7!8m2!3d49.4520376!4d11.0695485!16s%2Fg%2F1tdydmjb!19sChIJTehA_6tXn0cRp5LcM94e1uY?authuser=0&hl=de&rclk=1,2026-05-03T18:15:35Z,active,success,
0x479f57aa263bf5a1:0x9f35e949fb8db8a7,Friseur Unicut Nürnberg – Haar- und Bartschnitt,90402,"Ludwigstraße 57, 90402 Nürnberg",5,53,Friseur / Kosmetik,49.4488813,11.0684209,04,Gostenhof,true,11,20,15.5,22.63,4.095,11 bis 20 Bewertungen aufgrund von Beschwerden wegen Diffamierung entfernt.,https://www.google.com/maps/place/Friseur+Unicut+N%C3%BCrnberg+%E2%80%93+Haar-+und+Bartschnitt/data=!4m7!3m6!1s0x479f57aa263bf5a1:0x9f35e949fb8db8a7!8m2!3d49.4488813!4d11.0684209!16s%2Fg%2F11h_wz81mf!19sChIJofU7JqpXn0cRp7iN-0npNZ8?authuser=0&hl=de&rclk=1,2026-05-03T18:14:26Z,active,success,
0x479f57045eb56473:0xf22f1b0112e5038c,Friseur kaissarschnitt,90402,"Karl-Grillenberger-Straße 38, 90402 Nürnberg",4.9,96,Friseur / Kosmetik,49.451242,11.0693675,01,"Altstadt, St. Lorenz",false,,,,,,,https://www.google.com/maps/place/Friseur+kaissarschnitt/data=!4m7!3m6!1s0x479f57045eb56473:0xf22f1b0112e5038c!8m2!3d49.451242!4d11.0693675!16s%2Fg%2F11t546h97v!19sChIJc2S1XgRXn0cRjAPlEgEbL_I?authuser=0&hl=de&rclk=1,2026-05-03T18:11:32Z,active,success,
0x479f57ce08e07cab:0x37b43310145a11f3,Friseure Adler & Herz,90402,"Hörmannsgäßchen Ecke Adlerstr, Königstraße 14, 90402 Nürnberg",5,2,Friseur / Kosmetik,49.4517934,11.0763862,01,"Altstadt, St. Lorenz",false,,,,,,,https://www.google.com/maps/place/Friseure+Adler+%26+Herz/data=!4m7!3m6!1s0x479f57ce08e07cab:0x37b43310145a11f3!8m2!3d49.4517934!4d11.0763862!16s%2Fg%2F11z4776cqj!19sChIJq3zgCM5Xn0cR8xFaFBAztDc?authuser=0&hl=de&rclk=1,2026-05-03T18:20:15Z,active,success,
0x479f57fab07bcc27:0x593e1e3a1592837e,Frittenwerk Nürnberg,90402,"Königstraße 2, 90402 Nürnberg",4.3,936,Restaurant,49.452547,11.0776017,01,"Altstadt, St. Lorenz",false,,,,,,,https://www.google.com/maps/place/Frittenwerk+N%C3%BCrnberg/data=!4m7!3m6!1s0x479f57fab07bcc27:0x593e1e3a1592837e!8m2!3d49.452547!4d11.0776017!16s%2Fg%2F11vkh48n71!19sChIJJ8x7sPpXn0cRfoOSFToePlk?authuser=0&hl=de&rclk=1,2026-05-03T12:15:17Z,active,success,
0x479f57abb7bc42a3:0x57fd25cb34480d63,Fritzör,90402,"Parkplatz, Schlotfegergasse 32, 90402 Nürnberg",4.9,77,Friseur / Kosmetik,49.450305,11.0674018,05,Himpfelshof,false,,,,,,,https://www.google.com/maps/place/Fritz%C3%B6r/data=!4m7!3m6!1s0x479f57abb7bc42a3:0x57fd25cb34480d63!8m2!3d49.450305!4d11.0674018!16s%2Fg%2F1tdl0khk!19sChIJo0K8t6tXn0cRYw1INMsl_Vc?authuser=0&hl=de&rclk=1,2026-05-03T18:15:13Z,active,success,
0x479f57a7201e8a93:0x2da8f66c4cb7aecf,Fränk'ness,90402,"Königstraße 70, 90402 Nürnberg",4.6,2057,Restaurant,49.4483484,11.0800638,03,Tafelhof,false,,,,,,,https://www.google.com/maps/place/Fr%C3%A4nk%27ness/data=!4m7!3m6!1s0x479f57a7201e8a93:0x2da8f66c4cb7aecf!8m2!3d49.4483484!4d11.0800638!16s%2Fg%2F11fzfbjmtp!19sChIJk4oeIKdXn0cRz663TGz2qC0?authuser=0&hl=de&rclk=1,2026-05-03T12:12:28Z,active,success,
0x479f57a732085995:0x1caf4f63b76cade1,Fränkische Weinstube,90402,"Handwerkerhof 5, 90402 Nürnberg",4.2,952,Restaurant,49.4472824,11.0811442,03,Tafelhof,false,,,,,,,https://www.google.com/maps/place/Fr%C3%A4nkische+Weinstube/data=!4m7!3m6!1s0x479f57a732085995:0x1caf4f63b76cade1!8m2!3d49.4472824!4d11.0811442!16s%2Fg%2F1tdxd8cr!19sChIJlVkIMqdXn0cR4a1st2NPrxw?authuser=0&hl=de&rclk=1,2026-05-03T12:18:44Z,active,success,
0x479f57001404cb7f:0xad5f9b41c070ba9c,Früchtestand,90402,"Königstraße 1-3, 90402 Nürnberg",,,Lebensmittel,49.4523957,11.0780765,01,"Altstadt, St. Lorenz",false,,,,,,,https://www.google.com/maps/place/Fr%C3%BCchtestand/data=!4m7!3m6!1s0x479f57001404cb7f:0xad5f9b41c070ba9c!8m2!3d49.4523957!4d11.0780765!16s%2Fg%2F11vs_w5s12!19sChIJf8sEFABXn0cRnLpwwEGbX60?authuser=0&hl=de&rclk=1,2026-05-03T19:06:42Z,active,success,
0x479f57e2c28c785f:0xd547fc83cdd5a0bd,Fujiyama,90402,"Dr.-Kurt-Schumacher-Straße 1, 90402 Nürnberg",4.3,1889,Sushi,49.4491227,11.0737825,01,"Altstadt, St. Lorenz",false,,,,,,,https://www.google.com/maps/place/Fujiyama/data=!4m7!3m6!1s0x479f57e2c28c785f:0xd547fc83cdd5a0bd!8m2!3d49.4491227!4d11.0737825!16s%2Fg%2F11fwczvb4b!19sChIJX3iMwuJXn0cRvaDVzYP8R9U?authuser=0&hl=de&rclk=1,2026-05-03T17:21:46Z,active,success,
0x479f570420371df5:0x8f9fc0acc70f6c93,G'schmeidig Haare lasern Nürnberg (Geschmeidig GmbH),90402,"Breite G. 31, 90402 Nürnberg",4.9,145,Sonstiges,49.4499543,11.0757943,01,"Altstadt, St. Lorenz",false,,,,,,,https://www.google.com/maps/place/G%27schmeidig+Haare+lasern+N%C3%BCrnberg+%28Geschmeidig+GmbH%29/data=!4m7!3m6!1s0x479f570420371df5:0x8f9fc0acc70f6c93!8m2!3d49.4499543!4d11.0757943!16s%2Fg%2F11kqst03v4!19sChIJ9R03IARXn0cRk2wPx6zAn48?authuser=0&hl=de&rclk=1,2026-05-03T18:24:38Z,active,success,
0x479f570026b4ce6f:0x4a101dc80378d9e5,GALERIA Markthalle Nürnberg,90402,"Königstraße 14, 90402 Nürnberg",,0,Lebensmittel,49.4515131,11.0775876,01,"Altstadt, St. Lorenz",false,,,,,,,https://www.google.com/maps/place/GALERIA+Markthalle+N%C3%BCrnberg/data=!4m7!3m6!1s0x479f570026b4ce6f:0x4a101dc80378d9e5!8m2!3d49.4515131!4d11.0775876!16s%2Fg%2F11mc9kztkn!19sChIJb860JgBXn0cR5dl4A8gdEEo?authuser=0&hl=de&rclk=1,2026-05-03T19:11:21Z,no_public_reviews,success,
0x479f57a5fc68258b:0x60b0ea9ad66802ca,GALERIA Nürnberg an der Lorenzkirche,90402,"Königstraße 14, 90402 Nürnberg",4.2,4656,Sonstiges,49.4515117,11.0775917,01,"Altstadt, St. Lorenz",false,,,,,,,"https://www.google.com/maps/place/GALERIA+N%C3%BCrnberg+an+der+Lorenzkirche/@49.4515117,11.0775917,16z/data=!3m1!4b1!4m6!3m5!1s0x479f57a5fc68258b:0x60b0ea9ad66802ca!8m2!3d49.4515117!4d11.0775917!16s%2Fg%2F11fzf5jgd6?entry=ttu&g_ep=EgoyMDI2MDUwMi4wIKXMDSoASAFQAw%3D%3D&hl=de",2026-05-07T08:38:47Z,active,success,
0x410c9f06833e6fa3:0xeef088c51ea4d99a,GALERIA Restaurant,90402,"Königstraße, An Der Lorenzkirche 14, 90402 Nürnberg",4.1,176,Restaurant,49.4515375,11.0775572,01,"Altstadt, St. Lorenz",false,,,,,,,https://www.google.com/maps/place/GALERIA+Restaurant/data=!4m7!3m6!1s0x410c9f06833e6fa3:0xeef088c51ea4d99a!8m2!3d49.4515375!4d11.0775572!16s%2Fg%2F1q6j8f851!19sChIJo28-gwafDEERmtmkHsWI8O4?authuser=0&hl=de&rclk=1,2026-05-03T12:22:58Z,active,success,
0x479f57c5ed5856c5:0x2ce9d7d0de44a753,Galerie Ostermayr - Bar Nürnberg,90402,"Königstraße 33 - 37/Laden 7 & 8, 90402 Nürnberg",4.8,140,Bar / Kneipe,49.4501784,11.0791391,01,"Altstadt, St. Lorenz",true,2,5,3.5,2.44,4.707,Zwei bis fünf Bewertungen aufgrund von Beschwerden wegen Diffamierung entfernt.,https://www.google.com/maps/place/Galerie+Ostermayr+-+Bar+N%C3%BCrnberg/data=!4m7!3m6!1s0x479f57c5ed5856c5:0x2ce9d7d0de44a753!8m2!3d49.4501784!4d11.0791391!16s%2Fg%2F11w7dtnx_z!19sChIJxVZY7cVXn0cRU6dE3tDX6Sw?authuser=0&hl=de&rclk=1,2026-05-03T17:47:04Z,active,success,
0x479f57a991b082cb:0x13f1d42089673151,Gassenhauer,90402,"Ottostraße 1, Engelhardsgasse 2, 90402 Nürnberg",4,69,Sonstiges,49.4487086,11.0693467,04,Gostenhof,false,,,,,,,https://www.google.com/maps/place/Gassenhauer/data=!4m7!3m6!1s0x479f57a991b082cb:0x13f1d42089673151!8m2!3d49.4487086!4d11.0693467!16s%2Fg%2F11c2jm_wjq!19sChIJy4KwkalXn0cRUTFniSDU8RM?authuser=0&hl=de&rclk=1,2026-05-03T17:45:13Z,active,success,
0x479f57a6b2dec3e1:0xab1ce1e86210ee8,Gemein und Gefährlich,90402,"Lorenzer Str. 31, 90402 Nürnberg",3.5,248,Club / Diskothek,49.4500746,11.0824743,01,"Altstadt, St. Lorenz",false,,,,,,,https://www.google.com/maps/place/Gemein+und+Gef%C3%A4hrlich/data=!4m7!3m6!1s0x479f57a6b2dec3e1:0xab1ce1e86210ee8!8m2!3d49.4500746!4d11.0824743!16s%2Fg%2F12q4y27p3!19sChIJ4cPesqZXn0cR6A4hhh7OsQo?authuser=0&hl=de&rclk=1,2026-05-03T17:45:06Z,active,success,
0x479f57a6f4063ef1:0xd77a834ada6ef266,Gideon Hotel,90402,"Königstraße 45, 90402 Nürnberg",4.4,418,Hotel,49.4495087,11.0795372,01,"Altstadt, St. Lorenz",false,,,,,,,https://www.google.com/maps/place/Gideon+Hotel/data=!4m10!3m9!1s0x479f57a6f4063ef1:0xd77a834ada6ef266!5m2!4m1!1i2!8m2!3d49.4495087!4d11.0795372!16s%2Fg%2F1hc4fcb35!19sChIJ8T4G9KZXn0cRZvJu2kqDetc?authuser=0&hl=de&rclk=1,2026-05-03T17:59:23Z,active,success,
0x479f57a8f8cf48d9:0xcf42a49889b69642,Golden Club Lounge Hookah & Drink *,90402,"Färberstraße 19, 90402 Nürnberg",4.9,1311,Bar / Kneipe,49.4487938,11.0725729,03,Tafelhof,true,6,10,8,0.61,4.876,Sechs bis zehn Bewertungen aufgrund von Beschwerden wegen Diffamierung entfernt.,https://www.google.com/maps/place/Golden+Club+Lounge+Hookah+%26+Drink+*/data=!4m7!3m6!1s0x479f57a8f8cf48d9:0xcf42a49889b69642!8m2!3d49.4487938!4d11.0725729!16s%2Fg%2F11bztbcq2g!19sChIJ2UjP-KhXn0cRQpa2iZikQs8?authuser=0&hl=de&rclk=1,2026-05-03T12:28:53Z,active,success,
0x479f578665aec7e7:0xba75da0484774e35,Golden Friseur - Nürnberg,90402,"Färberstraße 15, 90402 Nürnberg",5,407,Friseur / Kosmetik,49.4491765,11.0725938,01,"Altstadt, St. Lorenz",false,,,,,,,https://www.google.com/maps/place/Golden+Friseur+-+N%C3%BCrnberg/data=!4m7!3m6!1s0x479f578665aec7e7:0xba75da0484774e35!8m2!3d49.4491765!4d11.0725938!16s%2Fg%2F11w7kwdt_g!19sChIJ58euZYZXn0cRNU53hATadbo?authuser=0&hl=de&rclk=1,2026-05-03T18:09:04Z,active,success,
0x479f57a7baee1331:0xee4a7b93357144a8,Goldener Pudel,90402,"Grasersgasse 15, 90402 Nürnberg",4.4,1128,Café / Konditorei,49.4480886,11.0774655,01,"Altstadt, St. Lorenz",false,,,,,,,https://www.google.com/maps/place/Goldener+Pudel/data=!4m7!3m6!1s0x479f57a7baee1331:0xee4a7b93357144a8!8m2!3d49.4480886!4d11.0774655!16s%2Fg%2F12hm765mf!19sChIJMRPuuqdXn0cRqERxNZN7Su4?authuser=0&hl=de&rclk=1,2026-05-03T12:23:04Z,active,success,
0x479f579a9669a355:0xa2975f2cfacb0812,Green Orient,90402,"Breite G. 1, 90402 Nürnberg",5,49,Restaurant,49.4498773,11.0772646,01,"Altstadt, St. Lorenz",false,,,,,,,https://www.google.com/maps/place/Green+Orient/data=!4m7!3m6!1s0x479f579a9669a355:0xa2975f2cfacb0812!8m2!3d49.4498773!4d11.0772646!16s%2Fg%2F11yr7y_jn4!19sChIJVaNplppXn0cREgjL-ixfl6I?authuser=0&hl=de&rclk=1,2026-05-03T17:34:51Z,active,success,
0x479f570626f04469:0x107a955b2951fce9,Gregory's Nürnberg,90402,"Josephspl. 13, 90402 Nürnberg",4.5,177,Café / Konditorei,49.451277,11.0729743,01,"Altstadt, St. Lorenz",false,,,,,,,https://www.google.com/maps/place/Gregory%27s+N%C3%BCrnberg/data=!4m7!3m6!1s0x479f570626f04469:0x107a955b2951fce9!8m2!3d49.451277!4d11.0729743!16s%2Fg%2F11v3tppqq4!19sChIJaUTwJgZXn0cR6fxRKVuVehA?authuser=0&hl=de&rclk=1,2026-05-03T12:17:23Z,active,success,
0x479f57093473d1e9:0x8beaac237d77c8c3,Guerilla Gröstl Burger Foodhouse,90402,"Lorenzer Str. 23, 90402 Nürnberg",4.7,1466,Burger,49.4502383,11.0820523,01,"Altstadt, St. Lorenz",false,,,,,,,https://www.google.com/maps/place/Guerilla+Gr%C3%B6stl+Burger+Foodhouse/data=!4m7!3m6!1s0x479f57093473d1e9:0x8beaac237d77c8c3!8m2!3d49.4502383!4d11.0820523!16s%2Fg%2F11clvv1xc8!19sChIJ6dFzNAlXn0cRw8h3fSOs6os?authuser=0&hl=de&rclk=1,2026-05-03T12:15:43Z,active,success,
0x479f5794e7421d01:0x4d3914b35075ab4f,H&B Döner,90402,"Breite G. 38, 90402 Nürnberg",4.7,266,Döner / Kebab,49.4502254,11.07521,01,"Altstadt, St. Lorenz",true,51,100,75.5,22.11,3.882,51 bis 100 Bewertungen aufgrund von Beschwerden wegen Diffamierung entfernt.,"https://www.google.com/maps/place/H%26B+D%C3%B6ner/@49.4502254,11.07521,16z/data=!3m1!4b1!4m6!3m5!1s0x479f5794e7421d01:0x4d3914b35075ab4f!8m2!3d49.4502254!4d11.07521!16s%2Fg%2F11yfz0mjzl?entry=ttu&g_ep=EgoyMDI2MDUwMi4wIKXMDSoASAFQAw%3D%3D&hl=de",2026-05-07T08:37:58Z,active,success,
0x479f57bab43e5f3b:0x839feec2a9bf8734,HAIR DEPARTMENT,90402,"Karl-Grillenberger-Straße 1A, 90402 Nürnberg",4.7,140,Friseur / Kosmetik,49.4523999,11.0715596,01,"Altstadt, St. Lorenz",false,,,,,,,https://www.google.com/maps/place/HAIR+DEPARTMENT/data=!4m7!3m6!1s0x479f57bab43e5f3b:0x839feec2a9bf8734!8m2!3d49.4523999!4d11.0715596!16s%2Fg%2F1tf_021y!19sChIJO18-tLpXn0cRNIe_qcLun4M?authuser=0&hl=de&rclk=1,2026-05-03T18:28:42Z,active,success,
0x410c9f0680319b29:0x7156832f0f84f156,HAIR HAUS Nürnberg Zentrum,90402,"Breite G. 10, 90402 Nürnberg",4.7,27,Friseur / Kosmetik,49.4501,11.0772,01,"Altstadt, St. Lorenz",false,,,,,,,https://www.google.com/maps/place/HAIR+HAUS+N%C3%BCrnberg+Zentrum/data=!4m7!3m6!1s0x410c9f0680319b29:0x7156832f0f84f156!8m2!3d49.4501!4d11.0772!16s%2Fg%2F1tr7btcy!19sChIJKZsxgAafDEERVvGEDy-DVnE?authuser=0&hl=de&rclk=1,2026-05-03T18:19:45Z,active,success,
0x479f57a72407f8f7:0xa6c295fb010b1598,HANS IM GLÜCK - NÜRNBERG Altstadt,90402,"Königstraße 74, 90402 Nürnberg",4.4,7026,Burger,49.4480544,11.0805345,03,Tafelhof,false,,,,,,,https://www.google.com/maps/place/HANS+IM+GL%C3%9CCK+-+N%C3%9CRNBERG+Altstadt/data=!4m7!3m6!1s0x479f57a72407f8f7:0xa6c295fb010b1598!8m2!3d49.4480544!4d11.0805345!16s%2Fg%2F1ptvqb96_!19sChIJ9_gHJKdXn0cRmBULAfuVwqY?authuser=0&hl=de&rclk=1,2026-05-03T12:16:32Z,active,success,
0x479f578e63de5c4b:0x3d7e05da10643dc9,HEADS volu-med - Zweithaarstudio in Nürnberg,90402,"Luitpoldstraße 6, 90402 Nürnberg",5,18,Sonstiges,49.4483394,11.079656,03,Tafelhof,false,,,,,,,https://www.google.com/maps/place/HEADS+volu-med+-+Zweithaarstudio+in+N%C3%BCrnberg/data=!4m7!3m6!1s0x479f578e63de5c4b:0x3d7e05da10643dc9!8m2!3d49.4483394!4d11.079656!16s%2Fg%2F11rf6ys2db!19sChIJS1zeY45Xn0cRyT1kENoFfj0?authuser=0&hl=de&rclk=1,2026-05-03T18:24:20Z,active,success,
0x479f57d067c49491:0x52d36b6ac70e95f1,HERRENGEDECK,90402,"Schlotfegergasse 36, 90402 Nürnberg",4.9,376,Bar / Kneipe,49.4501423,11.0670546,05,Himpfelshof,false,,,,,,,https://www.google.com/maps/place/HERRENGEDECK/data=!4m7!3m6!1s0x479f57d067c49491:0x52d36b6ac70e95f1!8m2!3d49.4501423!4d11.0670546!16s%2Fg%2F11h14k28p9!19sChIJkZTEZ9BXn0cR8ZUOx2pr01I?authuser=0&hl=de&rclk=1,2026-05-03T17:36:43Z,active,success,
0x479f57a15cee72e3:0xbbf540ec067aea00,HINZxKUNZ KneipenKlub,90402,"Marientorgraben 13, 90402 Nürnberg",4.7,716,Club / Diskothek,49.4502087,11.0838188,02,Marienvorstadt,true,101,150,125.5,14.91,4.148,101 bis 150 Bewertungen aufgrund von Beschwerden wegen Diffamierung entfernt.,https://www.google.com/maps/place/HINZxKUNZ+KneipenKlub/data=!4m7!3m6!1s0x479f57a15cee72e3:0xbbf540ec067aea00!8m2!3d49.4502087!4d11.0838188!16s%2Fg%2F11cl_y_btv!19sChIJ43LuXKFXn0cRAOp6BuxA9bs?authuser=0&hl=de&rclk=1,2026-05-03T17:47:16Z,active,success,
0x479f574dbb7b5187:0xda4761bac300c60f,Haar Kreationen by Lui,90402,"Karl-Grillenberger-Straße 30, 90402 Nürnberg",4.9,432,Friseur / Kosmetik,49.4516716,11.0693684,01,"Altstadt, St. Lorenz",false,,,,,,,https://www.google.com/maps/place/Haar+Kreationen+by+Lui/data=!4m7!3m6!1s0x479f574dbb7b5187:0xda4761bac300c60f!8m2!3d49.4516716!4d11.0693684!16s%2Fg%2F11gxzt6_g7!19sChIJh1F7u01Xn0cRD8YAw7phR9o?authuser=0&hl=de&rclk=1,2026-05-03T18:08:59Z,active,success,
0x479f57a728da65d5:0xe85416137a53a204,Haar Kreativ,90402,"Königstraße 76, 90402 Nürnberg",5,6,Friseur / Kosmetik,49.4478816,11.0806922,03,Tafelhof,false,,,,,,,https://www.google.com/maps/place/Haar+Kreativ/data=!4m7!3m6!1s0x479f57a728da65d5:0xe85416137a53a204!8m2!3d49.4478816!4d11.0806922!16s%2Fg%2F1pty73fgy!19sChIJ1WXaKKdXn0cRBKJTehMWVOg?authuser=0&hl=de&rclk=1,2026-05-03T18:21:14Z,active,success,
0x479f57a5e0f63d37:0x232cc7237a8a49f9,Haarstudio Aurelio,90402,"Königstraße 15, 90402 Nürnberg",4.9,62,Friseur / Kosmetik,49.45146,11.07797,01,"Altstadt, St. Lorenz",false,,,,,,,https://www.google.com/maps/place/Haarstudio+Aurelio/data=!4m7!3m6!1s0x479f57a5e0f63d37:0x232cc7237a8a49f9!8m2!3d49.45146!4d11.07797!16s%2Fg%2F1tfnxl61!19sChIJNz324KVXn0cR-UmKeiPHLCM?authuser=0&hl=de&rclk=1,2026-05-03T18:17:09Z,active,success,
0x479f5751ae76bad7:0xb0e1d53897468c3f,Hair Area - Friseur,90402,"Lorenzer Str. 30, 90402 Nürnberg",5,24,Friseur / Kosmetik,49.4498762,11.082322,01,"Altstadt, St. Lorenz",false,,,,,,,https://www.google.com/maps/place/Hair+Area+-+Friseur/data=!4m7!3m6!1s0x479f5751ae76bad7:0xb0e1d53897468c3f!8m2!3d49.4498762!4d11.082322!16s%2Fg%2F11st63ncw4!19sChIJ17p2rlFXn0cRP4xGlzjV4bA?authuser=0&hl=de&rclk=1,2026-05-03T18:10:47Z,active,success,
0x479f570f103e51b7:0x711abf013dfe03ab,HairBrotherS,90402,"Dr.-Kurt-Schumacher-Straße 9, 90402 Nürnberg",5,350,Friseur / Kosmetik,49.4492287,11.0729666,01,"Altstadt, St. Lorenz",true,2,5,3.5,0.99,4.96,Zwei bis fünf Bewertungen aufgrund von Beschwerden wegen Diffamierung entfernt.,https://www.google.com/maps/place/HairBrotherS/data=!4m7!3m6!1s0x479f570f103e51b7:0x711abf013dfe03ab!8m2!3d49.4492287!4d11.0729666!16s%2Fg%2F11f3n90_75!19sChIJt1E-EA9Xn0cRqwP-PQG_GnE?authuser=0&hl=de&rclk=1,2026-05-03T18:12:42Z,active,success,
0x479f57b6818b9fdf:0xc6407995ca3ded7d,Haltestelle Hering,90402,"Klaragasse 11, 90402 Nürnberg",4.8,124,Bar / Kneipe,49.4486193,11.0775932,01,"Altstadt, St. Lorenz",false,,,,,,,https://www.google.com/maps/place/Haltestelle+Hering/data=!4m7!3m6!1s0x479f57b6818b9fdf:0xc6407995ca3ded7d!8m2!3d49.4486193!4d11.0775932!16s%2Fg%2F11p5n84hb9!19sChIJ35-LgbZXn0cRfe09ypV5QMY?authuser=0&hl=de&rclk=1,2026-05-03T17:39:07Z,active,success,
0x479f57a0382dfd33:0x5886a34eacdb6274,Hampton by Hilton Nürnberg City Centre,90402,"Bahnhofstraße 16, 90402 Nürnberg",4.2,1574,Hotel,49.4470781,11.0871121,11,Glockenhof,false,,,,,,,https://www.google.com/maps/place/Hampton+by+Hilton+N%C3%BCrnberg+City+Centre/data=!4m7!3m6!1s0x479f57a0382dfd33:0x5886a34eacdb6274!8m2!3d49.4470781!4d11.0871121!16s%2Fg%2F11b5pkk6b8!19sChIJM_0tOKBXn0cRdGLbrE6jhlg?authuser=0&hl=de&rclk=1,2026-05-03T17:34:33Z,active,success,
0x479f57a732085995:0x293bd9f2c8430915,Handwerkerhof Nürnberg,90402,"Königstraße 82, 90402 Nürnberg",4.6,6609,Sonstiges,49.4476697,11.0812015,03,Tafelhof,false,,,,,,,https://www.google.com/maps/place/Handwerkerhof+N%C3%BCrnberg/data=!4m7!3m6!1s0x479f57a732085995:0x293bd9f2c8430915!8m2!3d49.4476697!4d11.0812015!16s%2Fg%2F121tbmw_!19sChIJlVkIMqdXn0cRFQlDyPLZOyk?authuser=0&hl=de&rclk=1,2026-05-03T17:35:20Z,active,success,
0x479f57a621d1a265:0x8a5b3df64cc40510,Hangau's Barbershop,90402,"Breite G. 22, 90402 Nürnberg",4.5,697,Friseur / Kosmetik,49.450155,11.0761414,01,"Altstadt, St. Lorenz",false,,,,,,,https://www.google.com/maps/place/Hangau%27s+Barbershop/data=!4m7!3m6!1s0x479f57a621d1a265:0x8a5b3df64cc40510!8m2!3d49.450155!4d11.0761414!16s%2Fg%2F11dxl34dqc!19sChIJZaLRIaZXn0cREAXETPY9W4o?authuser=0&hl=de&rclk=1,2026-05-03T18:12:31Z,active,success,
0x479f57a71aa4b29d:0x6b87ca4529f459f6,Harlėm Bar,90402,"Luitpoldstraße 9, 90402 Nürnberg",4.5,343,Bar / Kneipe,49.447986,11.079354,03,Tafelhof,false,,,,,,,https://www.google.com/maps/place/Harl%C4%97m+Bar/data=!4m7!3m6!1s0x479f57a71aa4b29d:0x6b87ca4529f459f6!8m2!3d49.447986!4d11.079354!16s%2Fg%2F11g7_c5pmx!19sChIJnbKkGqdXn0cR9ln0KUXKh2s?authuser=0&hl=de&rclk=1,2026-05-03T17:37:07Z,active,success,
0x479f5701da488b8f:0x224226f1fc1451e9,Harmoniequelle Massage & Wellness,90402,"Dr.-Kurt-Schumacher-Straße 8, 90402 Nürnberg",4.6,21,Friseur / Kosmetik,49.4494397,11.0734739,01,"Altstadt, St. Lorenz",false,,,,,,,https://www.google.com/maps/place/Harmoniequelle+Massage+%26+Wellness/data=!4m7!3m6!1s0x479f5701da488b8f:0x224226f1fc1451e9!8m2!3d49.4494397!4d11.0734739!16s%2Fg%2F11w1qmzfp4!19sChIJj4tI2gFXn0cR6VEU_PEmQiI?authuser=0&hl=de&rclk=1,2026-05-03T18:58:56Z,active,success,
0x479f57005a34ff2f:0x5167b3e565217420,Harvest Moon Cannabis,90402,"Bahnhofspl. 9, 90402 Nürnberg",,,Club / Diskothek,49.446299,11.081877,13,Galgenhof,false,,,,,,,https://www.google.com/maps/place/Harvest+Moon+Cannabis/data=!4m7!3m6!1s0x479f57005a34ff2f:0x5167b3e565217420!8m2!3d49.446299!4d11.081877!16s%2Fg%2F11z2g37h0_!19sChIJL_80WgBXn0cRIHQhZeWzZ1E?authuser=0&hl=de&rclk=1,2026-05-03T17:55:36Z,active,success,
